number,id,CODE,name,province,state,long,lat,dc,type,lastUpdate,sa3,sa3name,sa4,sa4name,region
230,urn:australiapost.com.au:postcode:200_ANU,200,ANU,urn:iso:std:iso:3166:-2:AU-ACT,ACT,0,0,,,,,,,,R1
21820,urn:australiapost.com.au:postcode:200_AustralianNationalUniversity,200,Australian National University,urn:iso:std:iso:3166:-2:AU-ACT,ACT,149.1189,-35.2777,,,2020-01-19,,,,,R1
232,urn:australiapost.com.au:postcode:800_DARWIN,800,DARWIN,urn:iso:std:iso:3166:-2:AU-NT,NT,130.83668,-12.458684,,,2020-02-06,70101,Darwin City,701,Darwin,R1
233,urn:australiapost.com.au:postcode:801_DARWIN,801,DARWIN,urn:iso:std:iso:3166:-2:AU-NT,NT,130.83668,-12.458684,,,2020-03-25,70101,Darwin City,701,Darwin,R1
234,urn:australiapost.com.au:postcode:804_PARAP,804,PARAP,urn:iso:std:iso:3166:-2:AU-NT,NT,130.873315,-12.428017,,,2020-03-25,70102,Darwin Suburbs,701,Darwin,R1
235,urn:australiapost.com.au:postcode:810_ALAWA,810,ALAWA,urn:iso:std:iso:3166:-2:AU-NT,NT,130.866242,-12.381806,,,2020-02-06,70102,Darwin Suburbs,701,Darwin,R1
236,urn:australiapost.com.au:postcode:810_BRINKIN,810,BRINKIN,urn:iso:std:iso:3166:-2:AU-NT,NT,130.866242,-12.381806,,,2020-02-06,70102,Darwin Suburbs,701,Darwin,R1
237,urn:australiapost.com.au:postcode:810_CASUARINA,810,CASUARINA,urn:iso:std:iso:3166:-2:AU-NT,NT,130.866242,-12.381806,,,2020-02-06,70102,Darwin Suburbs,701,Darwin,R1
19972,urn:australiapost.com.au:postcode:810_COCONUTGROVE,810,COCONUT GROVE,urn:iso:std:iso:3166:-2:AU-NT,NT,130.8502369,-12.39614166,Northern Territory Country 1,Delivery Area,2020-02-06,70102,Darwin Suburbs,701,Darwin,R1
239,urn:australiapost.com.au:postcode:810_JINGILI,810,JINGILI,urn:iso:std:iso:3166:-2:AU-NT,NT,130.866242,-12.381806,,,2020-02-06,70102,Darwin Suburbs,701,Darwin,R1
240,urn:australiapost.com.au:postcode:810_LEEPOINT,810,LEE POINT,urn:iso:std:iso:3166:-2:AU-NT,NT,130.866242,-12.381806,,,2020-02-06,70102,Darwin Suburbs,701,Darwin,R1
19973,urn:australiapost.com.au:postcode:810_LYONS,810,LYONS,urn:iso:std:iso:3166:-2:AU-NT,NT,130.8885151,-12.35911956,Northern Territory Country 1,Delivery Area,2020-02-06,70102,Darwin Suburbs,701,Darwin,R1
241,urn:australiapost.com.au:postcode:810_MILLNER,810,MILLNER,urn:iso:std:iso:3166:-2:AU-NT,NT,130.866242,-12.381806,,,2020-02-06,70102,Darwin Suburbs,701,Darwin,R1
242,urn:australiapost.com.au:postcode:810_MOIL,810,MOIL,urn:iso:std:iso:3166:-2:AU-NT,NT,130.866242,-12.381806,,,2020-02-06,70102,Darwin Suburbs,701,Darwin,R1
19974,urn:australiapost.com.au:postcode:810_MUIRHEAD,810,MUIRHEAD,urn:iso:std:iso:3166:-2:AU-NT,NT,130.8959029,-12.35811947,Northern Territory Country 1,Delivery Area,2020-02-06,70102,Darwin Suburbs,701,Darwin,R1
243,urn:australiapost.com.au:postcode:810_NAKARA,810,NAKARA,urn:iso:std:iso:3166:-2:AU-NT,NT,130.866242,-12.381806,,,2020-02-06,70102,Darwin Suburbs,701,Darwin,R1
244,urn:australiapost.com.au:postcode:810_NIGHTCLIFF,810,NIGHTCLIFF,urn:iso:std:iso:3166:-2:AU-NT,NT,130.866242,-12.381806,,,2020-02-06,70102,Darwin Suburbs,701,Darwin,R1
245,urn:australiapost.com.au:postcode:810_RAPIDCREEK,810,RAPID CREEK,urn:iso:std:iso:3166:-2:AU-NT,NT,130.866242,-12.381806,,,2020-02-06,70102,Darwin Suburbs,701,Darwin,R1
246,urn:australiapost.com.au:postcode:810_TIWI,810,TIWI,urn:iso:std:iso:3166:-2:AU-NT,NT,130.866242,-12.381806,,,2020-02-06,70102,Darwin Suburbs,701,Darwin,R1
247,urn:australiapost.com.au:postcode:810_WAGAMAN,810,WAGAMAN,urn:iso:std:iso:3166:-2:AU-NT,NT,130.866242,-12.381806,,,2020-02-06,70102,Darwin Suburbs,701,Darwin,R1
248,urn:australiapost.com.au:postcode:810_WANGURI,810,WANGURI,urn:iso:std:iso:3166:-2:AU-NT,NT,130.866242,-12.381806,,,2020-02-06,70102,Darwin Suburbs,701,Darwin,R1
249,urn:australiapost.com.au:postcode:811_CASUARINA,811,CASUARINA,urn:iso:std:iso:3166:-2:AU-NT,NT,130.866242,-12.381806,,,2020-03-25,70102,Darwin Suburbs,701,Darwin,R1
19975,urn:australiapost.com.au:postcode:812_ANULA,812,ANULA,urn:iso:std:iso:3166:-2:AU-NT,NT,130.89047,-12.39124885,Northern Territory Country 1,Delivery Area,2020-02-06,70102,Darwin Suburbs,701,Darwin,R1
19976,urn:australiapost.com.au:postcode:812_BUFFALOCREEK,812,BUFFALO CREEK,urn:iso:std:iso:3166:-2:AU-NT,NT,130.9209831,-12.34638634,Northern Territory Country 1,Delivery Area,2020-02-06,70102,Darwin Suburbs,701,Darwin,R1
19977,urn:australiapost.com.au:postcode:812_HOLMES,812,HOLMES,urn:iso:std:iso:3166:-2:AU-NT,NT,130.9268602,-12.38479951,Northern Territory Country 1,Delivery Area,2020-02-06,70102,Darwin Suburbs,701,Darwin,R1
251,urn:australiapost.com.au:postcode:812_KARAMA,812,KARAMA,urn:iso:std:iso:3166:-2:AU-NT,NT,130.916098,-12.404778,,,2020-02-06,70102,Darwin Suburbs,701,Darwin,R1
252,urn:australiapost.com.au:postcode:812_LEANYER,812,LEANYER,urn:iso:std:iso:3166:-2:AU-NT,NT,130.916098,-12.404778,,,2020-02-06,70102,Darwin Suburbs,701,Darwin,R1
253,urn:australiapost.com.au:postcode:812_MALAK,812,MALAK,urn:iso:std:iso:3166:-2:AU-NT,NT,130.916098,-12.404778,,,2020-02-06,70102,Darwin Suburbs,701,Darwin,R1
254,urn:australiapost.com.au:postcode:812_MARRARA,812,MARRARA,urn:iso:std:iso:3166:-2:AU-NT,NT,130.916098,-12.404778,,,2020-02-06,70102,Darwin Suburbs,701,Darwin,R1
255,urn:australiapost.com.au:postcode:812_NORTHLAKES,812,NORTHLAKES,urn:iso:std:iso:3166:-2:AU-NT,NT,130.916098,-12.404778,,,2020-02-06,70102,Darwin Suburbs,701,Darwin,R1
256,urn:australiapost.com.au:postcode:812_SANDERSON,812,SANDERSON,urn:iso:std:iso:3166:-2:AU-NT,NT,130.916098,-12.404778,,,2020-02-06,70102,Darwin Suburbs,701,Darwin,R1
257,urn:australiapost.com.au:postcode:812_WOODLEIGHGARDENS,812,WOODLEIGH GARDENS,urn:iso:std:iso:3166:-2:AU-NT,NT,130.916098,-12.404778,,,2020-02-06,70102,Darwin Suburbs,701,Darwin,R1
258,urn:australiapost.com.au:postcode:812_WULAGI,812,WULAGI,urn:iso:std:iso:3166:-2:AU-NT,NT,130.916098,-12.404778,,,2020-02-06,70102,Darwin Suburbs,701,Darwin,R1
259,urn:australiapost.com.au:postcode:813_SANDERSON,813,SANDERSON,urn:iso:std:iso:3166:-2:AU-NT,NT,130.916098,-12.404778,,,2020-03-25,70102,Darwin Suburbs,701,Darwin,R1
260,urn:australiapost.com.au:postcode:814_NIGHTCLIFF,814,NIGHTCLIFF,urn:iso:std:iso:3166:-2:AU-NT,NT,130.866242,-12.381806,,,2020-03-25,70102,Darwin Suburbs,701,Darwin,R1
261,urn:australiapost.com.au:postcode:815_CHARLESDARWINUNIVERSITY,815,CHARLES DARWIN UNIVERSITY,urn:iso:std:iso:3166:-2:AU-NT,NT,0,0,,,2020-03-25,70102,Darwin Suburbs,701,Darwin,R1
262,urn:australiapost.com.au:postcode:820_BAGOT,820,BAGOT,urn:iso:std:iso:3166:-2:AU-NT,NT,130.873315,-12.428017,,,2020-02-06,70102,Darwin Suburbs,701,Darwin,R1
263,urn:australiapost.com.au:postcode:820_BAYVIEW,820,BAYVIEW,urn:iso:std:iso:3166:-2:AU-NT,NT,130.873315,-12.428017,,,2020-02-06,70102,Darwin Suburbs,701,Darwin,R1
264,urn:australiapost.com.au:postcode:820_CHARLESDARWIN,820,CHARLES DARWIN,urn:iso:std:iso:3166:-2:AU-NT,NT,130.873315,-12.428017,,,2020-02-06,70102,Darwin Suburbs,701,Darwin,R1
265,urn:australiapost.com.au:postcode:820_COONAWARRA,820,COONAWARRA,urn:iso:std:iso:3166:-2:AU-NT,NT,130.873315,-12.428017,,,2020-02-06,70102,Darwin Suburbs,701,Darwin,R1
266,urn:australiapost.com.au:postcode:820_CULLENBAY,820,CULLEN BAY,urn:iso:std:iso:3166:-2:AU-NT,NT,130.873315,-12.428017,,,2020-02-06,70102,Darwin Suburbs,701,Darwin,R1
19978,urn:australiapost.com.au:postcode:820_DARWINDC,820,DARWIN DC,urn:iso:std:iso:3166:-2:AU-NT,NT,130.8664593,-12.4255956,Northern Territory Country 1,Delivery Area,2020-02-06,70102,Darwin Suburbs,701,Darwin,R1
268,urn:australiapost.com.au:postcode:820_DARWININTERNATIONALAIRPORT,820,DARWIN INTERNATIONAL AIRPORT,urn:iso:std:iso:3166:-2:AU-NT,NT,130.873315,-12.428017,,,2020-02-06,70102,Darwin Suburbs,701,Darwin,R1
269,urn:australiapost.com.au:postcode:820_DARWINMC,820,DARWIN MC,urn:iso:std:iso:3166:-2:AU-NT,NT,130.873315,-12.428017,,,2020-02-06,70102,Darwin Suburbs,701,Darwin,R1
270,urn:australiapost.com.au:postcode:820_EASTPOINT,820,EAST POINT,urn:iso:std:iso:3166:-2:AU-NT,NT,130.873315,-12.428017,,,2020-02-06,70102,Darwin Suburbs,701,Darwin,R1
19979,urn:australiapost.com.au:postcode:820_EATON,820,EATON,urn:iso:std:iso:3166:-2:AU-NT,NT,130.880692,-12.4123871,Northern Territory Country 1,Delivery Area,2020-02-06,70102,Darwin Suburbs,701,Darwin,R1
271,urn:australiapost.com.au:postcode:820_FANNIEBAY,820,FANNIE BAY,urn:iso:std:iso:3166:-2:AU-NT,NT,130.873315,-12.428017,,,2020-02-06,70102,Darwin Suburbs,701,Darwin,R1
272,urn:australiapost.com.au:postcode:820_LARRAKEYAH,820,LARRAKEYAH,urn:iso:std:iso:3166:-2:AU-NT,NT,130.873315,-12.428017,,,2020-02-06,70102,Darwin Suburbs,701,Darwin,R1
273,urn:australiapost.com.au:postcode:820_LUDMILLA,820,LUDMILLA,urn:iso:std:iso:3166:-2:AU-NT,NT,130.873315,-12.428017,,,2020-02-06,70102,Darwin Suburbs,701,Darwin,R1
274,urn:australiapost.com.au:postcode:820_PARAP,820,PARAP,urn:iso:std:iso:3166:-2:AU-NT,NT,130.873315,-12.428017,,,2020-02-06,70102,Darwin Suburbs,701,Darwin,R1
275,urn:australiapost.com.au:postcode:820_RAAFBASEDARWIN,820,RAAF BASE DARWIN,urn:iso:std:iso:3166:-2:AU-NT,NT,130.873315,-12.428017,,,2020-02-06,70102,Darwin Suburbs,701,Darwin,R1
276,urn:australiapost.com.au:postcode:820_STUARTPARK,820,STUART PARK,urn:iso:std:iso:3166:-2:AU-NT,NT,130.873315,-12.428017,,,2020-02-06,70102,Darwin Suburbs,701,Darwin,R1
277,urn:australiapost.com.au:postcode:820_THEGARDENS,820,THE GARDENS,urn:iso:std:iso:3166:-2:AU-NT,NT,130.873315,-12.428017,,,2020-02-06,70102,Darwin Suburbs,701,Darwin,R1
278,urn:australiapost.com.au:postcode:820_THENARROWS,820,THE NARROWS,urn:iso:std:iso:3166:-2:AU-NT,NT,130.873315,-12.428017,,,2020-02-06,70102,Darwin Suburbs,701,Darwin,R1
279,urn:australiapost.com.au:postcode:820_WINNELLIE,820,WINNELLIE,urn:iso:std:iso:3166:-2:AU-NT,NT,130.873315,-12.428017,,,2020-02-06,70102,Darwin Suburbs,701,Darwin,R1
280,urn:australiapost.com.au:postcode:820_WOOLNER,820,WOOLNER,urn:iso:std:iso:3166:-2:AU-NT,NT,130.873315,-12.428017,,,2020-02-06,70102,Darwin Suburbs,701,Darwin,R1
281,urn:australiapost.com.au:postcode:821_WINNELLIE,821,WINNELLIE,urn:iso:std:iso:3166:-2:AU-NT,NT,136.947051,-13.643283,,,2020-03-25,70205,Katherine,702,Northern Territory - Outback,R1
282,urn:australiapost.com.au:postcode:822_ACACIAHILLS,822,ACACIA HILLS,urn:iso:std:iso:3166:-2:AU-NT,NT,136.947051,-13.643283,,,2020-02-06,70205,Katherine,702,Northern Territory - Outback,R1
19980,urn:australiapost.com.au:postcode:822_ANGURUGU,822,ANGURUGU,urn:iso:std:iso:3166:-2:AU-NT,NT,136.4612078,-13.98119125,Northern Territory Country 1,Delivery Area,2020-02-06,70205,Katherine,702,Northern Territory - Outback,R1
19981,urn:australiapost.com.au:postcode:822_ANINDILYAKWA,822,ANINDILYAKWA,urn:iso:std:iso:3166:-2:AU-NT,NT,136.5909616,-13.91698485,Northern Territory Country 1,Delivery Area,2020-02-06,70205,Katherine,702,Northern Territory - Outback,R1
19982,urn:australiapost.com.au:postcode:822_ANNIERIVER,822,ANNIE RIVER,urn:iso:std:iso:3166:-2:AU-NT,NT,133.3848319,-12.9305044,Northern Territory Country 1,Delivery Area,2020-02-06,70205,Katherine,702,Northern Territory - Outback,R1
19983,urn:australiapost.com.au:postcode:822_BATHURSTISLAND,822,BATHURST ISLAND,urn:iso:std:iso:3166:-2:AU-NT,NT,130.3496894,-11.6035121,Northern Territory Country 1,Delivery Area,2020-02-06,70205,Katherine,702,Northern Territory - Outback,R1
286,urn:australiapost.com.au:postcode:822_BEESCREEK,822,BEES CREEK,urn:iso:std:iso:3166:-2:AU-NT,NT,136.947051,-13.643283,,,2020-02-06,70205,Katherine,702,Northern Territory - Outback,R1
19984,urn:australiapost.com.au:postcode:822_BELYUEN,822,BELYUEN,urn:iso:std:iso:3166:-2:AU-NT,NT,130.6831805,-12.53818467,Northern Territory Country 1,Delivery Area,2020-02-06,70205,Katherine,702,Northern Territory - Outback,R1
19985,urn:australiapost.com.au:postcode:822_BLACKJUNGLE,822,BLACK JUNGLE,urn:iso:std:iso:3166:-2:AU-NT,NT,131.1942977,-12.50224007,Northern Territory Country 1,Delivery Area,2020-02-06,70205,Katherine,702,Northern Territory - Outback,R1
19986,urn:australiapost.com.au:postcode:822_BLACKMORE,822,BLACKMORE,urn:iso:std:iso:3166:-2:AU-NT,NT,130.9175773,-12.68983104,Northern Territory Country 1,Delivery Area,2020-02-06,70205,Katherine,702,Northern Territory - Outback,R1
287,urn:australiapost.com.au:postcode:822_BORDERSTORE,822,BORDER STORE,urn:iso:std:iso:3166:-2:AU-NT,NT,136.947051,-13.643283,,,2020-02-06,70205,Katherine,702,Northern Territory - Outback,R1
19987,urn:australiapost.com.au:postcode:822_BURRUNDIE,822,BURRUNDIE,urn:iso:std:iso:3166:-2:AU-NT,NT,131.8449886,-13.50171859,Northern Territory Country 1,Delivery Area,2020-02-06,70205,Katherine,702,Northern Territory - Outback,R1
19988,urn:australiapost.com.au:postcode:822_BYNOE,822,BYNOE,urn:iso:std:iso:3166:-2:AU-NT,NT,130.6320309,-12.79290292,Northern Territory Country 1,Delivery Area,2020-02-06,70205,Katherine,702,Northern Territory - Outback,R1
19989,urn:australiapost.com.au:postcode:822_BYNOEHARBOUR,822,BYNOE HARBOUR,urn:iso:std:iso:3166:-2:AU-NT,NT,130.5103483,-12.62538633,Northern Territory Country 1,Delivery Area,2020-02-06,70205,Katherine,702,Northern Territory - Outback,R1
19990,urn:australiapost.com.au:postcode:822_CAMPCREEK,822,CAMP CREEK,urn:iso:std:iso:3166:-2:AU-NT,NT,130.9320173,-13.17350435,Northern Territory Country 1,Delivery Area,2020-02-06,70205,Katherine,702,Northern Territory - Outback,R1
19991,urn:australiapost.com.au:postcode:822_CHANNELISLAND,822,CHANNEL ISLAND,urn:iso:std:iso:3166:-2:AU-NT,NT,130.8605303,-12.55219169,Northern Territory Country 1,Delivery Area,2020-02-06,70205,Katherine,702,Northern Territory - Outback,R1
19992,urn:australiapost.com.au:postcode:822_CHARLESDARWIN,822,CHARLES DARWIN,urn:iso:std:iso:3166:-2:AU-NT,NT,130.8766339,-12.45079537,Northern Territory Country 1,Delivery Area,2020-02-06,70205,Katherine,702,Northern Territory - Outback,R1
19993,urn:australiapost.com.au:postcode:822_CHARLOTTE,822,CHARLOTTE,urn:iso:std:iso:3166:-2:AU-NT,NT,130.8116588,-12.84045347,Northern Territory Country 1,Delivery Area,2020-02-06,70205,Katherine,702,Northern Territory - Outback,R1
19994,urn:australiapost.com.au:postcode:822_CLARAVALE,822,CLARAVALE,urn:iso:std:iso:3166:-2:AU-NT,NT,131.4120025,-14.5318367,Northern Territory Country 1,Delivery Area,2020-02-06,70205,Katherine,702,Northern Territory - Outback,R1
19995,urn:australiapost.com.au:postcode:822_COBOURG,822,COBOURG,urn:iso:std:iso:3166:-2:AU-NT,NT,132.1914189,-11.34530652,Northern Territory Country 1,Delivery Area,2020-02-06,70205,Katherine,702,Northern Territory - Outback,R1
19996,urn:australiapost.com.au:postcode:822_COLLETTCREEK,822,COLLETT CREEK,urn:iso:std:iso:3166:-2:AU-NT,NT,130.9188279,-12.90975469,Northern Territory Country 1,Delivery Area,2020-02-06,70205,Katherine,702,Northern Territory - Outback,R1
19997,urn:australiapost.com.au:postcode:822_COOMALIECREEK,822,COOMALIE CREEK,urn:iso:std:iso:3166:-2:AU-NT,NT,131.1688363,-13.02119253,Northern Territory Country 1,Delivery Area,2020-02-06,70205,Katherine,702,Northern Territory - Outback,R1
288,urn:australiapost.com.au:postcode:822_COXPENINSULA,822,COX PENINSULA,urn:iso:std:iso:3166:-2:AU-NT,NT,136.947051,-13.643283,,,2020-02-06,70205,Katherine,702,Northern Territory - Outback,R1
289,urn:australiapost.com.au:postcode:822_CROKERISLAND,822,CROKER ISLAND,urn:iso:std:iso:3166:-2:AU-NT,NT,136.947051,-13.643283,,,2020-02-06,70205,Katherine,702,Northern Territory - Outback,R1
290,urn:australiapost.com.au:postcode:822_DALYRIVER,822,DALY RIVER,urn:iso:std:iso:3166:-2:AU-NT,NT,136.947051,-13.643283,,,2020-02-06,70205,Katherine,702,Northern Territory - Outback,R1
291,urn:australiapost.com.au:postcode:822_DARWINMC,822,DARWIN MC,urn:iso:std:iso:3166:-2:AU-NT,NT,136.947051,-13.643283,,,2020-02-06,70205,Katherine,702,Northern Territory - Outback,R1
19998,urn:australiapost.com.au:postcode:822_DARWINRIVERDAM,822,DARWIN RIVER DAM,urn:iso:std:iso:3166:-2:AU-NT,NT,131.038648,-12.91652424,Northern Territory Country 1,Delivery Area,2020-02-06,70205,Katherine,702,Northern Territory - Outback,R1
19999,urn:australiapost.com.au:postcode:822_DELISSAVILLE,822,DELISSAVILLE,urn:iso:std:iso:3166:-2:AU-NT,NT,130.995425,-12.505532,Northern Territory Country 1,Delivery Area,2020-02-06,70205,Katherine,702,Northern Territory - Outback,R1
20000,urn:australiapost.com.au:postcode:822_DOUGLAS-DALY,822,DOUGLAS-DALY,urn:iso:std:iso:3166:-2:AU-NT,NT,131.48274,-13.81785615,Northern Territory Country 1,Delivery Area,2020-02-06,70205,Katherine,702,Northern Territory - Outback,R1
20001,urn:australiapost.com.au:postcode:822_EASTARM,822,EAST ARM,urn:iso:std:iso:3166:-2:AU-NT,NT,130.9027533,-12.48005564,Northern Territory Country 1,Delivery Area,2020-02-06,70205,Katherine,702,Northern Territory - Outback,R1
20002,urn:australiapost.com.au:postcode:822_EASTARNHEM,822,EAST ARNHEM,urn:iso:std:iso:3166:-2:AU-NT,NT,136.4330338,-12.44602304,Northern Territory Country 1,Delivery Area,2020-02-06,70205,Katherine,702,Northern Territory - Outback,R1
20003,urn:australiapost.com.au:postcode:822_ELRUNDIE,822,ELRUNDIE,urn:iso:std:iso:3166:-2:AU-NT,NT,130.940905,-12.48861681,Northern Territory Country 1,Delivery Area,2020-02-06,70205,Katherine,702,Northern Territory - Outback,R1
20004,urn:australiapost.com.au:postcode:822_EVAVALLEY,822,EVA VALLEY,urn:iso:std:iso:3166:-2:AU-NT,NT,131.0031474,-13.12725377,Northern Territory Country 1,Delivery Area,2020-02-06,70205,Katherine,702,Northern Territory - Outback,R1
20005,urn:australiapost.com.au:postcode:822_FINNISSVALLEY,822,FINNISS VALLEY,urn:iso:std:iso:3166:-2:AU-NT,NT,130.9517827,-13.06448685,Northern Territory Country 1,Delivery Area,2020-02-06,70205,Katherine,702,Northern Territory - Outback,R1
20006,urn:australiapost.com.au:postcode:822_FLYCREEK,822,FLY CREEK,urn:iso:std:iso:3166:-2:AU-NT,NT,131.0700157,-12.79587253,Northern Territory Country 1,Delivery Area,2020-02-06,70205,Katherine,702,Northern Territory - Outback,R1
20007,urn:australiapost.com.au:postcode:822_FREDSPASS,822,FREDS PASS,urn:iso:std:iso:3166:-2:AU-NT,NT,131.0515258,-12.53862952,Northern Territory Country 1,Delivery Area,2020-02-06,70205,Katherine,702,Northern Territory - Outback,R1
20008,urn:australiapost.com.au:postcode:822_GALIWINKU,822,GALIWINKU,urn:iso:std:iso:3166:-2:AU-NT,NT,135.5864427,-12.00777086,Northern Territory Country 1,Delivery Area,2020-02-06,70205,Katherine,702,Northern Territory - Outback,R1
20009,urn:australiapost.com.au:postcode:822_GLYDEPOINT,822,GLYDE POINT,urn:iso:std:iso:3166:-2:AU-NT,NT,131.0799794,-12.17971082,Northern Territory Country 1,Delivery Area,2020-02-06,70205,Katherine,702,Northern Territory - Outback,R1
295,urn:australiapost.com.au:postcode:822_GOULBOURNISLAND,822,GOULBOURN ISLAND,urn:iso:std:iso:3166:-2:AU-NT,NT,136.947051,-13.643283,,,2020-02-06,70205,Katherine,702,Northern Territory - Outback,R1
20010,urn:australiapost.com.au:postcode:822_GOULBURNISLAND,822,GOULBURN ISLAND,urn:iso:std:iso:3166:-2:AU-NT,NT,133.4548484,-11.4973068,Northern Territory Country 1,Delivery Area,2020-02-06,70205,Katherine,702,Northern Territory - Outback,R1
20011,urn:australiapost.com.au:postcode:822_GUNBALANYA,822,GUNBALANYA,urn:iso:std:iso:3166:-2:AU-NT,NT,133.0492311,-12.34692447,Northern Territory Country 1,Delivery Area,2020-02-06,70205,Katherine,702,Northern Territory - Outback,R1
296,urn:australiapost.com.au:postcode:822_GUNNPOINT,822,GUNN POINT,urn:iso:std:iso:3166:-2:AU-NT,NT,136.947051,-13.643283,,,2020-02-06,70205,Katherine,702,Northern Territory - Outback,R1
297,urn:australiapost.com.au:postcode:822_HAYESCREEK,822,HAYES CREEK,urn:iso:std:iso:3166:-2:AU-NT,NT,136.947051,-13.643283,,,2020-02-06,70205,Katherine,702,Northern Territory - Outback,R1
20012,urn:australiapost.com.au:postcode:822_HIDDENVALLEY,822,HIDDEN VALLEY,urn:iso:std:iso:3166:-2:AU-NT,NT,130.9036719,-12.45024526,Northern Territory Country 1,Delivery Area,2020-02-06,70205,Katherine,702,Northern Territory - Outback,R1
20013,urn:australiapost.com.au:postcode:822_HOTHAM,822,HOTHAM,urn:iso:std:iso:3166:-2:AU-NT,NT,131.4058522,-12.34404225,Northern Territory Country 1,Delivery Area,2020-02-06,70205,Katherine,702,Northern Territory - Outback,R1
20014,urn:australiapost.com.au:postcode:822_HUGHES,822,HUGHES,urn:iso:std:iso:3166:-2:AU-NT,NT,131.1007772,-12.68638471,Northern Territory Country 1,Delivery Area,2020-02-06,70205,Katherine,702,Northern Territory - Outback,R1
20015,urn:australiapost.com.au:postcode:822_KAKADU,822,KAKADU,urn:iso:std:iso:3166:-2:AU-NT,NT,132.4751149,-12.8662473,Northern Territory Country 1,Delivery Area,2020-02-06,70205,Katherine,702,Northern Territory - Outback,R1
20016,urn:australiapost.com.au:postcode:822_KOOLPINYAH,822,KOOLPINYAH,urn:iso:std:iso:3166:-2:AU-NT,NT,131.2102168,-12.37090569,Northern Territory Country 1,Delivery Area,2020-02-06,70205,Katherine,702,Northern Territory - Outback,R1
20017,urn:australiapost.com.au:postcode:822_LAKEBENNETT,822,LAKE BENNETT,urn:iso:std:iso:3166:-2:AU-NT,NT,131.1944707,-12.93083352,Northern Territory Country 1,Delivery Area,2020-02-06,70205,Katherine,702,Northern Territory - Outback,R1
299,urn:australiapost.com.au:postcode:822_LAMBELLSLAGOON,822,LAMBELLS LAGOON,urn:iso:std:iso:3166:-2:AU-NT,NT,136.947051,-13.643283,,,2020-02-06,70205,Katherine,702,Northern Territory - Outback,R1
20018,urn:australiapost.com.au:postcode:822_LITCHFIELDPARK,822,LITCHFIELD PARK,urn:iso:std:iso:3166:-2:AU-NT,NT,130.8462398,-13.25317338,Northern Territory Country 1,Delivery Area,2020-02-06,70205,Katherine,702,Northern Territory - Outback,R1
300,urn:australiapost.com.au:postcode:822_LIVINGSTONE,822,LIVINGSTONE,urn:iso:std:iso:3166:-2:AU-NT,NT,136.947051,-13.643283,,,2020-02-06,70205,Katherine,702,Northern Territory - Outback,R1
20019,urn:australiapost.com.au:postcode:822_LLOYDCREEK,822,LLOYD CREEK,urn:iso:std:iso:3166:-2:AU-NT,NT,131.1457668,-12.66634037,Northern Territory Country 1,Delivery Area,2020-02-06,70205,Katherine,702,Northern Territory - Outback,R1
20020,urn:australiapost.com.au:postcode:822_MANDORAH,822,MANDORAH,urn:iso:std:iso:3166:-2:AU-NT,NT,130.7615787,-12.44295777,Northern Territory Country 1,Delivery Area,2020-02-06,70205,Katherine,702,Northern Territory - Outback,R1
301,urn:australiapost.com.au:postcode:822_MANINGRIDA,822,MANINGRIDA,urn:iso:std:iso:3166:-2:AU-NT,NT,136.947051,-13.643283,,,2020-02-06,70205,Katherine,702,Northern Territory - Outback,R1
20021,urn:australiapost.com.au:postcode:822_MARANUNGA,822,MARANUNGA,urn:iso:std:iso:3166:-2:AU-NT,NT,130.7085705,-13.70834554,Northern Territory Country 1,Delivery Area,2020-02-06,70205,Katherine,702,Northern Territory - Outback,R1
20022,urn:australiapost.com.au:postcode:822_MARGARETRIVER,822,MARGARET RIVER,urn:iso:std:iso:3166:-2:AU-NT,NT,131.3574052,-13.19932137,Northern Territory Country 1,Delivery Area,2020-02-06,70205,Katherine,702,Northern Territory - Outback,R1
302,urn:australiapost.com.au:postcode:822_MCMINNSLAGOON,822,MCMINNS LAGOON,urn:iso:std:iso:3166:-2:AU-NT,NT,136.947051,-13.643283,,,2020-02-06,70205,Katherine,702,Northern Territory - Outback,R1
20023,urn:australiapost.com.au:postcode:822_MICKETTCREEK,822,MICKETT CREEK,urn:iso:std:iso:3166:-2:AU-NT,NT,130.951697,-12.379529,Northern Territory Country 1,Delivery Area,2020-02-06,70205,Katherine,702,Northern Territory - Outback,R1
303,urn:australiapost.com.au:postcode:822_MIDDLEPOINT,822,MIDDLE POINT,urn:iso:std:iso:3166:-2:AU-NT,NT,136.947051,-13.643283,,,2020-02-06,70205,Katherine,702,Northern Territory - Outback,R1
20024,urn:australiapost.com.au:postcode:822_MILINGIMBI,822,MILINGIMBI,urn:iso:std:iso:3166:-2:AU-NT,NT,134.9172943,-12.10344037,Northern Territory Country 1,Delivery Area,2020-02-06,70205,Katherine,702,Northern Territory - Outback,R1
305,urn:australiapost.com.au:postcode:822_MILLWOOD,822,MILLWOOD,urn:iso:std:iso:3166:-2:AU-NT,NT,136.947051,-13.643283,,,2020-02-06,70205,Katherine,702,Northern Territory - Outback,R1
20025,urn:australiapost.com.au:postcode:822_MILYAKBURRA,822,MILYAKBURRA,urn:iso:std:iso:3166:-2:AU-NT,NT,136.202001,-13.77934879,Northern Territory Country 1,Delivery Area,2020-02-06,70205,Katherine,702,Northern Territory - Outback,R1
20026,urn:australiapost.com.au:postcode:822_MINJILANG,822,MINJILANG,urn:iso:std:iso:3166:-2:AU-NT,NT,132.5724813,-11.14470594,Northern Territory Country 1,Delivery Area,2020-02-06,70205,Katherine,702,Northern Territory - Outback,R1
20027,urn:australiapost.com.au:postcode:822_MOUNTBUNDEY,822,MOUNT BUNDEY,urn:iso:std:iso:3166:-2:AU-NT,NT,131.751956,-13.02955913,Northern Territory Country 1,Delivery Area,2020-02-06,70205,Katherine,702,Northern Territory - Outback,R1
20028,urn:australiapost.com.au:postcode:822_MURRUMUJUK,822,MURRUMUJUK,urn:iso:std:iso:3166:-2:AU-NT,NT,131.0779057,-12.29096291,Northern Territory Country 1,Delivery Area,2020-02-06,70205,Katherine,702,Northern Territory - Outback,R1
20029,urn:australiapost.com.au:postcode:822_NAUIYU,822,NAUIYU,urn:iso:std:iso:3166:-2:AU-NT,NT,130.7310542,-13.72157548,Northern Territory Country 1,Delivery Area,2020-02-06,70205,Katherine,702,Northern Territory - Outback,R1
20030,urn:australiapost.com.au:postcode:822_NEMARLUK,822,NEMARLUK,urn:iso:std:iso:3166:-2:AU-NT,NT,130.4543865,-14.62289167,Northern Territory Country 1,Delivery Area,2020-02-06,70205,Katherine,702,Northern Territory - Outback,R1
20031,urn:australiapost.com.au:postcode:822_NGANMARRIYANGA,822,NGANMARRIYANGA,urn:iso:std:iso:3166:-2:AU-NT,NT,129.8834932,-14.33497868,Northern Territory Country 1,Delivery Area,2020-02-06,70205,Katherine,702,Northern Territory - Outback,R1
307,urn:australiapost.com.au:postcode:822_NGUIU,822,NGUIU,urn:iso:std:iso:3166:-2:AU-NT,NT,136.947051,-13.643283,,,2020-02-06,70205,Katherine,702,Northern Territory - Outback,R1
20032,urn:australiapost.com.au:postcode:822_NUMBULWAR,822,NUMBULWAR,urn:iso:std:iso:3166:-2:AU-NT,NT,135.727696,-14.28113146,Northern Territory Country 1,Delivery Area,2020-02-06,70205,Katherine,702,Northern Territory - Outback,R1
20033,urn:australiapost.com.au:postcode:822_NUMBURINDI,822,NUMBURINDI,urn:iso:std:iso:3166:-2:AU-NT,NT,135.7946389,-13.95994028,Northern Territory Country 1,Delivery Area,2020-02-06,70205,Katherine,702,Northern Territory - Outback,R1
308,urn:australiapost.com.au:postcode:822_OENPELLI,822,OENPELLI,urn:iso:std:iso:3166:-2:AU-NT,NT,136.947051,-13.643283,,,2020-02-06,70205,Katherine,702,Northern Territory - Outback,R1
20034,urn:australiapost.com.au:postcode:822_PEPPIMENARTI,822,PEPPIMENARTI,urn:iso:std:iso:3166:-2:AU-NT,NT,130.082796,-14.1456977,Northern Territory Country 1,Delivery Area,2020-02-06,70205,Katherine,702,Northern Territory - Outback,R1
20035,urn:australiapost.com.au:postcode:822_PIRLANGIMPI,822,PIRLANGIMPI,urn:iso:std:iso:3166:-2:AU-NT,NT,130.4214678,-11.39026066,Northern Territory Country 1,Delivery Area,2020-02-06,70205,Katherine,702,Northern Territory - Outback,R1
309,urn:australiapost.com.au:postcode:822_POINTSTEPHENS,822,POINT STEPHENS,urn:iso:std:iso:3166:-2:AU-NT,NT,136.947051,-13.643283,,,2020-02-06,70205,Katherine,702,Northern Territory - Outback,R1
20036,urn:australiapost.com.au:postcode:822_POINTSTUART,822,POINT STUART,urn:iso:std:iso:3166:-2:AU-NT,NT,131.8321645,-12.54034189,Northern Territory Country 1,Delivery Area,2020-02-06,70205,Katherine,702,Northern Territory - Outback,R1
310,urn:australiapost.com.au:postcode:822_PULARUMPI,822,PULARUMPI,urn:iso:std:iso:3166:-2:AU-NT,NT,136.947051,-13.643283,,,2020-02-06,70205,Katherine,702,Northern Territory - Outback,R1
311,urn:australiapost.com.au:postcode:822_PULUMPA,822,PULUMPA,urn:iso:std:iso:3166:-2:AU-NT,NT,136.947051,-13.643283,,,2020-02-06,70205,Katherine,702,Northern Territory - Outback,R1
20037,urn:australiapost.com.au:postcode:822_RAKULA,822,RAKULA,urn:iso:std:iso:3166:-2:AU-NT,NT,130.3707089,-13.05159634,Northern Territory Country 1,Delivery Area,2020-02-06,70205,Katherine,702,Northern Territory - Outback,R1
20038,urn:australiapost.com.au:postcode:822_RAMINGINING,822,RAMINGINING,urn:iso:std:iso:3166:-2:AU-NT,NT,134.9259152,-12.32899612,Northern Territory Country 1,Delivery Area,2020-02-06,70205,Katherine,702,Northern Territory - Outback,R1
20039,urn:australiapost.com.au:postcode:822_ROBINFALLS,822,ROBIN FALLS,urn:iso:std:iso:3166:-2:AU-NT,NT,131.1214742,-13.38650542,Northern Territory Country 1,Delivery Area,2020-02-06,70205,Katherine,702,Northern Territory - Outback,R1
20040,urn:australiapost.com.au:postcode:822_RUMJUNGLE,822,RUM JUNGLE,urn:iso:std:iso:3166:-2:AU-NT,NT,131.0198663,-12.99988524,Northern Territory Country 1,Delivery Area,2020-02-06,70205,Katherine,702,Northern Territory - Outback,R1
20041,urn:australiapost.com.au:postcode:822_SANDPALMSROADHOUSE,822,SANDPALMS ROADHOUSE,urn:iso:std:iso:3166:-2:AU-NT,NT,133.3848319,-12.9305044,Northern Territory Country 1,Delivery Area,2020-02-06,70205,Katherine,702,Northern Territory - Outback,R1
313,urn:australiapost.com.au:postcode:822_SOUTHPORT,822,SOUTHPORT,urn:iso:std:iso:3166:-2:AU-NT,NT,136.947051,-13.643283,,,2020-02-06,70205,Katherine,702,Northern Territory - Outback,R1
20042,urn:australiapost.com.au:postcode:822_STAPLETON,822,STAPLETON,urn:iso:std:iso:3166:-2:AU-NT,NT,131.0258358,-13.18414806,Northern Territory Country 1,Delivery Area,2020-02-06,70205,Katherine,702,Northern Territory - Outback,R1
20043,urn:australiapost.com.au:postcode:822_THAMARRURR,822,THAMARRURR,urn:iso:std:iso:3166:-2:AU-NT,NT,129.6399677,-14.20132457,Northern Territory Country 1,Delivery Area,2020-02-06,70205,Katherine,702,Northern Territory - Outback,R1
20044,urn:australiapost.com.au:postcode:822_TIPPERARY,822,TIPPERARY,urn:iso:std:iso:3166:-2:AU-NT,NT,130.619275,-14.03882235,Northern Territory Country 1,Delivery Area,2020-02-06,70205,Katherine,702,Northern Territory - Outback,R1
20045,urn:australiapost.com.au:postcode:822_TIVENDALE,822,TIVENDALE,urn:iso:std:iso:3166:-2:AU-NT,NT,130.9502272,-12.46528731,Northern Territory Country 1,Delivery Area,2020-02-06,70205,Katherine,702,Northern Territory - Outback,R1
20046,urn:australiapost.com.au:postcode:822_TIWIISLANDS,822,TIWI ISLANDS,urn:iso:std:iso:3166:-2:AU-NT,NT,131.1875059,-11.51399925,Northern Territory Country 1,Delivery Area,2020-02-06,70205,Katherine,702,Northern Territory - Outback,R1
20047,urn:australiapost.com.au:postcode:822_TORTILLAFLATS,822,TORTILLA FLATS,urn:iso:std:iso:3166:-2:AU-NT,NT,131.1778852,-13.08686447,Northern Territory Country 1,Delivery Area,2020-02-06,70205,Katherine,702,Northern Territory - Outback,R1
20048,urn:australiapost.com.au:postcode:822_TUMBLINGWATERS,822,TUMBLING WATERS,urn:iso:std:iso:3166:-2:AU-NT,NT,130.9609622,-12.75687265,Northern Territory Country 1,Delivery Area,2020-02-06,70205,Katherine,702,Northern Territory - Outback,R1
315,urn:australiapost.com.au:postcode:822_UMBAKUMBA,822,UMBAKUMBA,urn:iso:std:iso:3166:-2:AU-NT,NT,136.947051,-13.643283,,,2020-02-06,70205,Katherine,702,Northern Territory - Outback,R1
20049,urn:australiapost.com.au:postcode:822_VERNONISLANDS,822,VERNON ISLANDS,urn:iso:std:iso:3166:-2:AU-NT,NT,131.0936969,-12.05953061,Northern Territory Country 1,Delivery Area,2020-02-06,70205,Katherine,702,Northern Territory - Outback,R1
316,urn:australiapost.com.au:postcode:822_VIRGINIA,822,VIRGINIA,urn:iso:std:iso:3166:-2:AU-NT,NT,136.947051,-13.643283,,,2020-02-06,70205,Katherine,702,Northern Territory - Outback,R1
317,urn:australiapost.com.au:postcode:822_WADEYE,822,WADEYE,urn:iso:std:iso:3166:-2:AU-NT,NT,136.947051,-13.643283,,,2020-02-06,70205,Katherine,702,Northern Territory - Outback,R1
318,urn:australiapost.com.au:postcode:822_WAGAITBEACH,822,WAGAIT BEACH,urn:iso:std:iso:3166:-2:AU-NT,NT,136.947051,-13.643283,,,2020-02-06,70205,Katherine,702,Northern Territory - Outback,R1
20050,urn:australiapost.com.au:postcode:822_WAKWAK,822,WAK WAK,urn:iso:std:iso:3166:-2:AU-NT,NT,131.236971,-12.66325075,Northern Territory Country 1,Delivery Area,2020-02-06,70205,Katherine,702,Northern Territory - Outback,R1
20051,urn:australiapost.com.au:postcode:822_WARRUWI,822,WARRUWI,urn:iso:std:iso:3166:-2:AU-NT,NT,133.3782542,-11.65786276,Northern Territory Country 1,Delivery Area,2020-02-06,70205,Katherine,702,Northern Territory - Outback,R1
319,urn:australiapost.com.au:postcode:822_WEDDELL,822,WEDDELL,urn:iso:std:iso:3166:-2:AU-NT,NT,136.947051,-13.643283,,,2020-02-06,70205,Katherine,702,Northern Territory - Outback,R1
20052,urn:australiapost.com.au:postcode:822_WESTARNHEM,822,WEST ARNHEM,urn:iso:std:iso:3166:-2:AU-NT,NT,133.6471255,-12.25508592,Northern Territory Country 1,Delivery Area,2020-02-06,70205,Katherine,702,Northern Territory - Outback,R1
20053,urn:australiapost.com.au:postcode:822_WICKHAM,822,WICKHAM,urn:iso:std:iso:3166:-2:AU-NT,NT,130.9100115,-12.54731927,Northern Territory Country 1,Delivery Area,2020-02-06,70205,Katherine,702,Northern Territory - Outback,R1
320,urn:australiapost.com.au:postcode:822_WINNELLIE,822,WINNELLIE,urn:iso:std:iso:3166:-2:AU-NT,NT,136.947051,-13.643283,,,2020-02-06,70205,Katherine,702,Northern Territory - Outback,R1
20054,urn:australiapost.com.au:postcode:822_WISHART,822,WISHART,urn:iso:std:iso:3166:-2:AU-NT,NT,130.9321025,-12.45712713,Northern Territory Country 1,Delivery Area,2020-02-06,70205,Katherine,702,Northern Territory - Outback,R1
321,urn:australiapost.com.au:postcode:822_WOOLANING,822,WOOLANING,urn:iso:std:iso:3166:-2:AU-NT,NT,136.947051,-13.643283,,,2020-02-06,70205,Katherine,702,Northern Territory - Outback,R1
20055,urn:australiapost.com.au:postcode:822_WURRUMIYANGA,822,WURRUMIYANGA,urn:iso:std:iso:3166:-2:AU-NT,NT,130.6254299,-11.75841975,Northern Territory Country 1,Delivery Area,2020-02-06,70205,Katherine,702,Northern Territory - Outback,R1
322,urn:australiapost.com.au:postcode:828_BERRIMAH,828,BERRIMAH,urn:iso:std:iso:3166:-2:AU-NT,NT,130.932068,-12.432024,,,2020-02-06,70102,Darwin Suburbs,701,Darwin,R1
323,urn:australiapost.com.au:postcode:828_KNUCKEYLAGOON,828,KNUCKEY LAGOON,urn:iso:std:iso:3166:-2:AU-NT,NT,130.932068,-12.432024,,,2020-02-06,70102,Darwin Suburbs,701,Darwin,R1
20056,urn:australiapost.com.au:postcode:829_PINELANDS,829,PINELANDS,urn:iso:std:iso:3166:-2:AU-NT,NT,130.9597671,-12.45763297,Northern Territory Country 1,Delivery Area,2020-02-06,70104,Palmerston,701,Darwin,R1
20057,urn:australiapost.com.au:postcode:830_ARCHER,830,ARCHER,urn:iso:std:iso:3166:-2:AU-NT,NT,130.9580765,-12.52139649,Northern Territory Country 1,Delivery Area,2020-02-06,70104,Palmerston,701,Darwin,R1
326,urn:australiapost.com.au:postcode:830_DRIVER,830,DRIVER,urn:iso:std:iso:3166:-2:AU-NT,NT,130.974879,-12.475071,,,2020-02-06,70104,Palmerston,701,Darwin,R1
327,urn:australiapost.com.au:postcode:830_DURACK,830,DURACK,urn:iso:std:iso:3166:-2:AU-NT,NT,130.974879,-12.475071,,,2020-02-06,70104,Palmerston,701,Darwin,R1
328,urn:australiapost.com.au:postcode:830_FARRAR,830,FARRAR,urn:iso:std:iso:3166:-2:AU-NT,NT,130.974879,-12.475071,,,2020-02-06,70104,Palmerston,701,Darwin,R1
329,urn:australiapost.com.au:postcode:830_GRAY,830,GRAY,urn:iso:std:iso:3166:-2:AU-NT,NT,130.974879,-12.475071,,,2020-02-06,70104,Palmerston,701,Darwin,R1
330,urn:australiapost.com.au:postcode:830_MARLOWLAGOON,830,MARLOW LAGOON,urn:iso:std:iso:3166:-2:AU-NT,NT,130.974879,-12.475071,,,2020-02-06,70104,Palmerston,701,Darwin,R1
331,urn:australiapost.com.au:postcode:830_MOULDEN,830,MOULDEN,urn:iso:std:iso:3166:-2:AU-NT,NT,130.974879,-12.475071,,,2020-02-06,70104,Palmerston,701,Darwin,R1
332,urn:australiapost.com.au:postcode:830_PALMERSTON,830,PALMERSTON,urn:iso:std:iso:3166:-2:AU-NT,NT,130.974879,-12.475071,,,2020-02-06,70104,Palmerston,701,Darwin,R1
333,urn:australiapost.com.au:postcode:830_SHOALBAY,830,SHOAL BAY,urn:iso:std:iso:3166:-2:AU-NT,NT,130.974879,-12.475071,,,2020-02-06,70104,Palmerston,701,Darwin,R1
334,urn:australiapost.com.au:postcode:830_WOODROFFE,830,WOODROFFE,urn:iso:std:iso:3166:-2:AU-NT,NT,130.974879,-12.475071,,,2020-02-06,70104,Palmerston,701,Darwin,R1
335,urn:australiapost.com.au:postcode:830_YARRAWONGA,830,YARRAWONGA,urn:iso:std:iso:3166:-2:AU-NT,NT,130.974879,-12.475071,,,2020-02-06,70104,Palmerston,701,Darwin,R1
336,urn:australiapost.com.au:postcode:831_PALMERSTON,831,PALMERSTON,urn:iso:std:iso:3166:-2:AU-NT,NT,130.974879,-12.475071,,,2020-03-25,70104,Palmerston,701,Darwin,R1
20058,urn:australiapost.com.au:postcode:832_BAKEWELL,832,BAKEWELL,urn:iso:std:iso:3166:-2:AU-NT,NT,130.9936551,-12.49684676,Northern Territory Country 1,Delivery Area,2020-02-06,70104,Palmerston,701,Darwin,R1
20059,urn:australiapost.com.au:postcode:832_BELLAMACK,832,BELLAMACK,urn:iso:std:iso:3166:-2:AU-NT,NT,130.9830307,-12.51562954,Northern Territory Country 1,Delivery Area,2020-02-06,70104,Palmerston,701,Darwin,R1
339,urn:australiapost.com.au:postcode:832_GUNN,832,GUNN,urn:iso:std:iso:3166:-2:AU-NT,NT,130.957712,-12.502817,,,2020-02-06,70104,Palmerston,701,Darwin,R1
20060,urn:australiapost.com.au:postcode:832_JOHNSTON,832,JOHNSTON,urn:iso:std:iso:3166:-2:AU-NT,NT,131.0063506,-12.49297483,Northern Territory Country 1,Delivery Area,2020-02-06,70104,Palmerston,701,Darwin,R1
340,urn:australiapost.com.au:postcode:832_MITCHELL,832,MITCHELL,urn:iso:std:iso:3166:-2:AU-NT,NT,130.957712,-12.502817,,,2020-02-06,70104,Palmerston,701,Darwin,R1
341,urn:australiapost.com.au:postcode:832_ROSEBERY,832,ROSEBERY,urn:iso:std:iso:3166:-2:AU-NT,NT,130.957712,-12.502817,,,2020-02-06,70104,Palmerston,701,Darwin,R1
342,urn:australiapost.com.au:postcode:832_ROSEBERYHEIGHTS,832,ROSEBERY HEIGHTS,urn:iso:std:iso:3166:-2:AU-NT,NT,130.957712,-12.502817,,,2020-02-06,70104,Palmerston,701,Darwin,R1
20061,urn:australiapost.com.au:postcode:832_ZUCCOLI,832,ZUCCOLI,urn:iso:std:iso:3166:-2:AU-NT,NT,131.0058233,-12.51070433,Northern Territory Country 1,Delivery Area,2020-02-06,70104,Palmerston,701,Darwin,R1
20062,urn:australiapost.com.au:postcode:834_VIRGINIA,834,VIRGINIA,urn:iso:std:iso:3166:-2:AU-NT,NT,131.0234875,-12.54686461,,Delivery Area,2020-03-25,70103,Litchfield,701,Darwin,R1
21821,urn:australiapost.com.au:postcode:835_Coolalinga,835,Coolalinga,urn:iso:std:iso:3166:-2:AU-NT,NT,131.0415,-12.5231,,,2020-02-06,70103,Litchfield,701,Darwin,R1
343,urn:australiapost.com.au:postcode:835_HOWARDSPRINGS,835,HOWARD SPRINGS,urn:iso:std:iso:3166:-2:AU-NT,NT,131.013741,-12.452568,,,2020-02-06,70103,Litchfield,701,Darwin,R1
344,urn:australiapost.com.au:postcode:835_VIRGINIA,835,VIRGINIA,urn:iso:std:iso:3166:-2:AU-NT,NT,131.013741,-12.452568,,,2020-02-06,70103,Litchfield,701,Darwin,R1
345,urn:australiapost.com.au:postcode:836_HERBERT,836,HERBERT,urn:iso:std:iso:3166:-2:AU-NT,NT,131.100668,-12.557754,,,2020-02-06,70103,Litchfield,701,Darwin,R1
20063,urn:australiapost.com.au:postcode:836_HUMPTYDOO,836,HUMPTY DOO,urn:iso:std:iso:3166:-2:AU-NT,NT,131.1272564,-12.58487247,Northern Territory Country 1,Delivery Area,2020-02-06,70103,Litchfield,701,Darwin,R1
347,urn:australiapost.com.au:postcode:837_MANTON,837,MANTON,urn:iso:std:iso:3166:-2:AU-NT,NT,131.016647,-12.704767,,,2020-02-06,70103,Litchfield,701,Darwin,R1
20064,urn:australiapost.com.au:postcode:837_NOONAMAH,837,NOONAMAH,urn:iso:std:iso:3166:-2:AU-NT,NT,131.094044,-12.64187171,Northern Territory Country 4,Delivery Area,2020-02-06,70103,Litchfield,701,Darwin,R1
349,urn:australiapost.com.au:postcode:838_BERRYSPRINGS,838,BERRY SPRINGS,urn:iso:std:iso:3166:-2:AU-NT,NT,131.0067348,-12.71878122,,,2020-03-25,70103,Litchfield,701,Darwin,R1
20065,urn:australiapost.com.au:postcode:839_COOLALINGA,839,COOLALINGA,urn:iso:std:iso:3166:-2:AU-NT,NT,131.0402017,-12.52001124,,Delivery Area,2020-03-25,70103,Litchfield,701,Darwin,R1
350,urn:australiapost.com.au:postcode:840_DUNDEEBEACH,840,DUNDEE BEACH,urn:iso:std:iso:3166:-2:AU-NT,NT,130.3529386,-12.72451307,,,2020-03-25,70203,Daly - Tiwi - West Arnhem,702,Northern Territory - Outback,R1
351,urn:australiapost.com.au:postcode:840_DUNDEEDOWNS,840,DUNDEE DOWNS,urn:iso:std:iso:3166:-2:AU-NT,NT,130.5109414,-12.76554875,,,2020-03-25,70203,Daly - Tiwi - West Arnhem,702,Northern Territory - Outback,R1
352,urn:australiapost.com.au:postcode:840_DUNDEEFOREST,840,DUNDEE FOREST,urn:iso:std:iso:3166:-2:AU-NT,NT,130.4518371,-12.71366907,,,2020-03-25,70203,Daly - Tiwi - West Arnhem,702,Northern Territory - Outback,R1
353,urn:australiapost.com.au:postcode:841_DARWINRIVER,841,DARWIN RIVER,urn:iso:std:iso:3166:-2:AU-NT,NT,130.969862,-12.81922863,,,2020-03-25,70103,Litchfield,701,Darwin,R1
354,urn:australiapost.com.au:postcode:845_BATCHELOR,845,BATCHELOR,urn:iso:std:iso:3166:-2:AU-NT,NT,131.038475,-13.045118,,,2020-02-06,70203,Daly - Tiwi - West Arnhem,702,Northern Territory - Outback,R1
355,urn:australiapost.com.au:postcode:846_ADELAIDERIVER,846,ADELAIDE RIVER,urn:iso:std:iso:3166:-2:AU-NT,NT,131.095002,-13.210299,,,2020-02-06,70203,Daly - Tiwi - West Arnhem,702,Northern Territory - Outback,R1
356,urn:australiapost.com.au:postcode:847_PINECREEK,847,PINE CREEK,urn:iso:std:iso:3166:-2:AU-NT,NT,131.759154,-14.012122,,,2020-02-06,70203,Daly - Tiwi - West Arnhem,702,Northern Territory - Outback,R1
20066,urn:australiapost.com.au:postcode:850_COSSACK,850,COSSACK,urn:iso:std:iso:3166:-2:AU-NT,NT,132.1721041,-14.46369137,Katherine,Delivery Area,2020-02-06,70205,Katherine,702,Northern Territory - Outback,R1
20067,urn:australiapost.com.au:postcode:850_EMUNGALAN,850,EMUNGALAN,urn:iso:std:iso:3166:-2:AU-NT,NT,132.2418315,-14.4161067,Katherine,Delivery Area,2020-02-06,70205,Katherine,702,Northern Territory - Outback,R1
357,urn:australiapost.com.au:postcode:850_KATHERINE,850,KATHERINE,urn:iso:std:iso:3166:-2:AU-NT,NT,132.365352,-14.195911,,,2020-02-06,70205,Katherine,702,Northern Territory - Outback,R1
20068,urn:australiapost.com.au:postcode:850_KATHERINEEAST,850,KATHERINE EAST,urn:iso:std:iso:3166:-2:AU-NT,NT,132.2874375,-14.46576308,Katherine,Delivery Area,2020-02-06,70205,Katherine,702,Northern Territory - Outback,R1
20069,urn:australiapost.com.au:postcode:850_KATHERINESOUTH,850,KATHERINE SOUTH,urn:iso:std:iso:3166:-2:AU-NT,NT,132.2598385,-14.48180579,Katherine,Delivery Area,2020-02-06,70205,Katherine,702,Northern Territory - Outback,R1
20070,urn:australiapost.com.au:postcode:850_LANSDOWNE,850,LANSDOWNE,urn:iso:std:iso:3166:-2:AU-NT,NT,132.3888705,-14.43162875,Katherine,Delivery Area,2020-02-06,70205,Katherine,702,Northern Territory - Outback,R1
358,urn:australiapost.com.au:postcode:851_KATHERINE,851,KATHERINE,urn:iso:std:iso:3166:-2:AU-NT,NT,137.050719,-15.711424,,,2020-03-25,70205,Katherine,702,Northern Territory - Outback,R1
20071,urn:australiapost.com.au:postcode:852_ARNOLD,852,ARNOLD,urn:iso:std:iso:3166:-2:AU-NT,NT,134.3769898,-16.07839,Katherine,Delivery Area,2020-02-06,70205,Katherine,702,Northern Territory - Outback,R1
20072,urn:australiapost.com.au:postcode:852_BAINES,852,BAINES,urn:iso:std:iso:3166:-2:AU-NT,NT,129.4842959,-15.90897497,Katherine,Delivery Area,2020-02-06,70205,Katherine,702,Northern Territory - Outback,R1
20073,urn:australiapost.com.au:postcode:852_BARUNGA,852,BARUNGA,urn:iso:std:iso:3166:-2:AU-NT,NT,132.8673924,-14.52664756,Katherine,Delivery Area,2020-02-06,70205,Katherine,702,Northern Territory - Outback,R1
360,urn:australiapost.com.au:postcode:852_BESWICK,852,BESWICK,urn:iso:std:iso:3166:-2:AU-NT,NT,137.050719,-15.711424,,,2020-02-06,70205,Katherine,702,Northern Territory - Outback,R1
20074,urn:australiapost.com.au:postcode:852_BESWICKCREEK,852,BESWICK CREEK,urn:iso:std:iso:3166:-2:AU-NT,NT,133.3001701,-14.43207837,Katherine,Delivery Area,2020-02-06,70205,Katherine,702,Northern Territory - Outback,R1
20075,urn:australiapost.com.au:postcode:852_BINJARI,852,BINJARI,urn:iso:std:iso:3166:-2:AU-NT,NT,132.1841678,-14.5501072,Katherine,Delivery Area,2020-02-06,70205,Katherine,702,Northern Territory - Outback,R1
20076,urn:australiapost.com.au:postcode:852_BIRDUM,852,BIRDUM,urn:iso:std:iso:3166:-2:AU-NT,NT,133.5378622,-16.23196977,Katherine,Delivery Area,2020-02-06,70205,Katherine,702,Northern Territory - Outback,R1
20077,urn:australiapost.com.au:postcode:852_BRADSHAW,852,BRADSHAW,urn:iso:std:iso:3166:-2:AU-NT,NT,130.534439,-15.09737856,Katherine,Delivery Area,2020-02-06,70205,Katherine,702,Northern Territory - Outback,R1
20078,urn:australiapost.com.au:postcode:852_BUCHANAN,852,BUCHANAN,urn:iso:std:iso:3166:-2:AU-NT,NT,129.6208296,-17.80951107,Katherine,Delivery Area,2020-02-06,70205,Katherine,702,Northern Territory - Outback,R1
20079,urn:australiapost.com.au:postcode:852_BULMANWEEMOL,852,BULMAN WEEMOL,urn:iso:std:iso:3166:-2:AU-NT,NT,134.3037985,-13.65022603,Katherine,Delivery Area,2020-02-06,70205,Katherine,702,Northern Territory - Outback,R1
20080,urn:australiapost.com.au:postcode:852_CRESWELL,852,CRESWELL,urn:iso:std:iso:3166:-2:AU-NT,NT,135.8076202,-17.82741422,Katherine,Delivery Area,2020-02-06,70205,Katherine,702,Northern Territory - Outback,R1
20081,urn:australiapost.com.au:postcode:852_DAGURAGU,852,DAGURAGU,urn:iso:std:iso:3166:-2:AU-NT,NT,130.8021087,-17.41926848,Katherine,Delivery Area,2020-02-06,70205,Katherine,702,Northern Territory - Outback,R1
361,urn:australiapost.com.au:postcode:852_DALYWATERS,852,DALY WATERS,urn:iso:std:iso:3166:-2:AU-NT,NT,137.050719,-15.711424,,,2020-02-06,70205,Katherine,702,Northern Territory - Outback,R1
20082,urn:australiapost.com.au:postcode:852_DELAMERE,852,DELAMERE,urn:iso:std:iso:3166:-2:AU-NT,NT,131.6691884,-15.4019318,Katherine,Delivery Area,2020-02-06,70205,Katherine,702,Northern Territory - Outback,R1
362,urn:australiapost.com.au:postcode:852_DUNMARRA,852,DUNMARRA,urn:iso:std:iso:3166:-2:AU-NT,NT,137.050719,-15.711424,,,2020-02-06,70205,Katherine,702,Northern Territory - Outback,R1
20083,urn:australiapost.com.au:postcode:852_EDITH,852,EDITH,urn:iso:std:iso:3166:-2:AU-NT,NT,131.8172473,-13.99360017,Katherine,Delivery Area,2020-02-06,70205,Katherine,702,Northern Territory - Outback,R1
363,urn:australiapost.com.au:postcode:852_EDITHRIVER,852,EDITH RIVER,urn:iso:std:iso:3166:-2:AU-NT,NT,137.050719,-15.711424,,,2020-02-06,70205,Katherine,702,Northern Territory - Outback,R1
20084,urn:australiapost.com.au:postcode:852_ELSEY,852,ELSEY,urn:iso:std:iso:3166:-2:AU-NT,NT,133.546834,-15.07384438,Katherine,Delivery Area,2020-02-06,70205,Katherine,702,Northern Territory - Outback,R1
364,urn:australiapost.com.au:postcode:852_ELSEYSTATION,852,ELSEY STATION,urn:iso:std:iso:3166:-2:AU-NT,NT,137.050719,-15.711424,,,2020-02-06,70205,Katherine,702,Northern Territory - Outback,R1
20085,urn:australiapost.com.au:postcode:852_FLORINA,852,FLORINA,urn:iso:std:iso:3166:-2:AU-NT,NT,131.9083299,-14.5152899,Katherine,Delivery Area,2020-02-06,70205,Katherine,702,Northern Territory - Outback,R1
20086,urn:australiapost.com.au:postcode:852_FLYINGFOX,852,FLYING FOX,urn:iso:std:iso:3166:-2:AU-NT,NT,134.1976975,-14.15932656,Katherine,Delivery Area,2020-02-06,70205,Katherine,702,Northern Territory - Outback,R1
20087,urn:australiapost.com.au:postcode:852_GREGORY,852,GREGORY,urn:iso:std:iso:3166:-2:AU-NT,NT,130.3336523,-16.34525224,Katherine,Delivery Area,2020-02-06,70205,Katherine,702,Northern Territory - Outback,R1
20088,urn:australiapost.com.au:postcode:852_GULUNGMARDRULK,852,GULUNG MARDRULK,urn:iso:std:iso:3166:-2:AU-NT,NT,133.5636211,-13.53798419,Katherine,Delivery Area,2020-02-06,70205,Katherine,702,Northern Territory - Outback,R1
20089,urn:australiapost.com.au:postcode:852_GURINDJI,852,GURINDJI,urn:iso:std:iso:3166:-2:AU-NT,NT,131.0885202,-18.22634802,Katherine,Delivery Area,2020-02-06,70205,Katherine,702,Northern Territory - Outback,R1
22843,urn:australiapost.com.au:postcode:852_HELENSPRINGSSTATION,852,HELEN SPRINGS STATION,urn:iso:std:iso:3166:-2:AU-NT,NT,0,0,,,2020-03-25,,,,,R3
20090,urn:australiapost.com.au:postcode:852_JILKMINGGAN,852,JILKMINGGAN,urn:iso:std:iso:3166:-2:AU-NT,NT,133.292842,-14.96147762,Katherine,Delivery Area,2020-02-06,70205,Katherine,702,Northern Territory - Outback,R1
20091,urn:australiapost.com.au:postcode:852_KALKARINDJI,852,KALKARINDJI,urn:iso:std:iso:3166:-2:AU-NT,NT,130.832639,-17.44449505,Katherine,Delivery Area,2020-02-06,70205,Katherine,702,Northern Territory - Outback,R1
365,urn:australiapost.com.au:postcode:852_KALKARINGI,852,KALKARINGI,urn:iso:std:iso:3166:-2:AU-NT,NT,137.050719,-15.711424,,,2020-02-06,70205,Katherine,702,Northern Territory - Outback,R1
366,urn:australiapost.com.au:postcode:852_KATHERINE,852,KATHERINE,urn:iso:std:iso:3166:-2:AU-NT,NT,137.050719,-15.711424,,,2020-02-06,70205,Katherine,702,Northern Territory - Outback,R1
367,urn:australiapost.com.au:postcode:852_LAJAMANU,852,LAJAMANU,urn:iso:std:iso:3166:-2:AU-NT,NT,137.050719,-15.711424,,,2020-02-06,70205,Katherine,702,Northern Territory - Outback,R1
368,urn:australiapost.com.au:postcode:852_LARRIMAH,852,LARRIMAH,urn:iso:std:iso:3166:-2:AU-NT,NT,137.050719,-15.711424,,,2020-02-06,70205,Katherine,702,Northern Territory - Outback,R1
20092,urn:australiapost.com.au:postcode:852_LIMMEN,852,LIMMEN,urn:iso:std:iso:3166:-2:AU-NT,NT,134.936628,-15.104596,Katherine,Delivery Area,2020-02-06,70205,Katherine,702,Northern Territory - Outback,R1
369,urn:australiapost.com.au:postcode:852_MANBULLOO,852,MANBULLOO,urn:iso:std:iso:3166:-2:AU-NT,NT,137.050719,-15.711424,,,2020-02-06,70205,Katherine,702,Northern Territory - Outback,R1
20093,urn:australiapost.com.au:postcode:852_MARANBOY,852,MARANBOY,urn:iso:std:iso:3166:-2:AU-NT,NT,132.864374,-14.524609,Katherine,Delivery Area,2020-02-06,70205,Katherine,702,Northern Territory - Outback,R1
20094,urn:australiapost.com.au:postcode:852_MATARANKA,852,MATARANKA,urn:iso:std:iso:3166:-2:AU-NT,NT,133.0434117,-14.96983009,Katherine,Delivery Area,2020-02-06,70205,Katherine,702,Northern Territory - Outback,R1
20095,urn:australiapost.com.au:postcode:852_MCARTHUR,852,MCARTHUR,urn:iso:std:iso:3166:-2:AU-NT,NT,135.9389164,-16.26282987,Katherine,Delivery Area,2020-02-06,70205,Katherine,702,Northern Territory - Outback,R1
20096,urn:australiapost.com.au:postcode:852_MINIYERI,852,MINIYERI,urn:iso:std:iso:3166:-2:AU-NT,NT,134.0797817,-15.2254374,Katherine,Delivery Area,2020-02-06,70205,Katherine,702,Northern Territory - Outback,R1
20097,urn:australiapost.com.au:postcode:852_NGUKURR,852,NGUKURR,urn:iso:std:iso:3166:-2:AU-NT,NT,134.7440734,-14.73158731,Katherine,Delivery Area,2020-02-06,70205,Katherine,702,Northern Territory - Outback,R1
20098,urn:australiapost.com.au:postcode:852_NITMILUK,852,NITMILUK,urn:iso:std:iso:3166:-2:AU-NT,NT,132.5362579,-14.11434123,Katherine,Delivery Area,2020-02-06,70205,Katherine,702,Northern Territory - Outback,R1
373,urn:australiapost.com.au:postcode:852_NUMBULWAR,852,NUMBULWAR,urn:iso:std:iso:3166:-2:AU-NT,NT,137.050719,-15.711424,,,2020-02-06,70205,Katherine,702,Northern Territory - Outback,R1
20099,urn:australiapost.com.au:postcode:852_PELLEWISLANDS,852,PELLEW ISLANDS,urn:iso:std:iso:3166:-2:AU-NT,NT,136.8142529,-15.66080497,Katherine,Delivery Area,2020-02-06,70205,Katherine,702,Northern Territory - Outback,R1
20100,urn:australiapost.com.au:postcode:852_PIGEONHOLE,852,PIGEON HOLE,urn:iso:std:iso:3166:-2:AU-NT,NT,131.215146,-16.79514658,Katherine,Delivery Area,2020-02-06,70205,Katherine,702,Northern Territory - Outback,R1
20101,urn:australiapost.com.au:postcode:852_ROBINSONRIVER,852,ROBINSON RIVER,urn:iso:std:iso:3166:-2:AU-NT,NT,136.9827659,-16.75852817,Katherine,Delivery Area,2020-02-06,70205,Katherine,702,Northern Territory - Outback,R1
20102,urn:australiapost.com.au:postcode:852_STURTPLATEAU,852,STURT PLATEAU,urn:iso:std:iso:3166:-2:AU-NT,NT,132.6120699,-15.65938858,Katherine,Delivery Area,2020-02-06,70205,Katherine,702,Northern Territory - Outback,R1
20103,urn:australiapost.com.au:postcode:852_TANAMIEAST,852,TANAMI EAST,urn:iso:std:iso:3166:-2:AU-NT,NT,132.7009096,-18.61662725,Katherine,Delivery Area,2020-02-06,70205,Katherine,702,Northern Territory - Outback,R1
20104,urn:australiapost.com.au:postcode:852_TIMBERCREEK,852,TIMBER CREEK,urn:iso:std:iso:3166:-2:AU-NT,NT,130.4960315,-15.66155041,Katherine,Delivery Area,2020-02-06,70205,Katherine,702,Northern Territory - Outback,R1
20105,urn:australiapost.com.au:postcode:852_TOPSPRINGS,852,TOP SPRINGS,urn:iso:std:iso:3166:-2:AU-NT,NT,131.8014849,-16.54851117,Katherine,Delivery Area,2020-02-06,70205,Katherine,702,Northern Territory - Outback,R1
20106,urn:australiapost.com.au:postcode:852_URALLA,852,URALLA,urn:iso:std:iso:3166:-2:AU-NT,NT,132.2980338,-14.49121431,Katherine,Delivery Area,2020-02-06,70205,Katherine,702,Northern Territory - Outback,R1
20107,urn:australiapost.com.au:postcode:852_VENN,852,VENN,urn:iso:std:iso:3166:-2:AU-NT,NT,132.539518,-14.55560838,Katherine,Delivery Area,2020-02-06,70205,Katherine,702,Northern Territory - Outback,R1
20108,urn:australiapost.com.au:postcode:852_VICTORIARIVER,852,VICTORIA RIVER,urn:iso:std:iso:3166:-2:AU-NT,NT,131.5356628,-16.66340592,Katherine,Delivery Area,2020-02-06,70205,Katherine,702,Northern Territory - Outback,R1
375,urn:australiapost.com.au:postcode:852_VICTORIARIVERDOWNS,852,VICTORIA RIVER DOWNS,urn:iso:std:iso:3166:-2:AU-NT,NT,137.050719,-15.711424,,,2020-02-06,70205,Katherine,702,Northern Territory - Outback,R1
20109,urn:australiapost.com.au:postcode:852_WARUMUNGU,852,WARUMUNGU,urn:iso:std:iso:3166:-2:AU-NT,NT,133.952899,-20.02830877,Katherine,Delivery Area,2020-02-06,70205,Katherine,702,Northern Territory - Outback,R1
376,urn:australiapost.com.au:postcode:852_WAVEHILL,852,WAVE HILL,urn:iso:std:iso:3166:-2:AU-NT,NT,137.050719,-15.711424,,,2020-02-06,70205,Katherine,702,Northern Territory - Outback,R1
20110,urn:australiapost.com.au:postcode:852_WILTON,852,WILTON,urn:iso:std:iso:3166:-2:AU-NT,NT,134.9242872,-14.43717242,Katherine,Delivery Area,2020-02-06,70205,Katherine,702,Northern Territory - Outback,R1
20111,urn:australiapost.com.au:postcode:852_YARRALIN,852,YARRALIN,urn:iso:std:iso:3166:-2:AU-NT,NT,130.8418661,-16.4525888,Katherine,Delivery Area,2020-02-06,70205,Katherine,702,Northern Territory - Outback,R1
20112,urn:australiapost.com.au:postcode:853_TINDAL,853,TINDAL,urn:iso:std:iso:3166:-2:AU-NT,NT,132.3791217,-14.53113365,Northern Territory Country 1,Delivery Area,2020-02-06,70205,Katherine,702,Northern Territory - Outback,R1
377,urn:australiapost.com.au:postcode:853_TINDALRAAF,853,TINDAL RAAF,urn:iso:std:iso:3166:-2:AU-NT,NT,132.417121,-14.558122,,,2020-02-06,70205,Katherine,702,Northern Territory - Outback,R1
378,urn:australiapost.com.au:postcode:854_BORROLOOLA,854,BORROLOOLA,urn:iso:std:iso:3166:-2:AU-NT,NT,136.424191,-16.503809,,,2020-02-06,70205,Katherine,702,Northern Territory - Outback,R1
20113,urn:australiapost.com.au:postcode:854_KINGASHBAY,854,KING ASH BAY,urn:iso:std:iso:3166:-2:AU-NT,NT,136.3091159,-16.070754,Northern Territory Country 1,Delivery Area,2020-02-06,70205,Katherine,702,Northern Territory - Outback,R1
380,urn:australiapost.com.au:postcode:860_TENNANTCREEK,860,TENNANT CREEK,urn:iso:std:iso:3166:-2:AU-NT,NT,134.173599,-19.641301,,,2020-02-06,70202,Barkly,702,Northern Territory - Outback,R1
381,urn:australiapost.com.au:postcode:861_BRUNCHILLY,861,BRUNCHILLY,urn:iso:std:iso:3166:-2:AU-NT,NT,0,0,,,,,,,,R1
382,urn:australiapost.com.au:postcode:861_TENNANTCREEK,861,TENNANT CREEK,urn:iso:std:iso:3166:-2:AU-NT,NT,134.463153,-18.251528,,,2020-03-25,70205,Katherine,702,Northern Territory - Outback,R1
383,urn:australiapost.com.au:postcode:862_AVONDOWNS,862,AVON DOWNS,urn:iso:std:iso:3166:-2:AU-NT,NT,134.463153,-18.251528,,,2020-02-06,70205,Katherine,702,Northern Territory - Outback,R1
20114,urn:australiapost.com.au:postcode:862_CALVERT,862,CALVERT,urn:iso:std:iso:3166:-2:AU-NT,NT,137.4667145,-16.79698963,Northern Territory Country 1,Delivery Area,2020-02-06,70205,Katherine,702,Northern Territory - Outback,R1
384,urn:australiapost.com.au:postcode:862_CRESSWELLDOWNS,862,CRESSWELL DOWNS,urn:iso:std:iso:3166:-2:AU-NT,NT,134.463153,-18.251528,,,2020-02-06,70205,Katherine,702,Northern Territory - Outback,R1
385,urn:australiapost.com.au:postcode:862_ELLIOTT,862,ELLIOTT,urn:iso:std:iso:3166:-2:AU-NT,NT,134.463153,-18.251528,,,2020-02-06,70205,Katherine,702,Northern Territory - Outback,R1
386,urn:australiapost.com.au:postcode:862_HELENSPRINGS,862,HELEN SPRINGS,urn:iso:std:iso:3166:-2:AU-NT,NT,134.463153,-18.251528,,,2020-02-06,70205,Katherine,702,Northern Territory - Outback,R1
387,urn:australiapost.com.au:postcode:862_MUCKATYSTATION,862,MUCKATY STATION,urn:iso:std:iso:3166:-2:AU-NT,NT,134.463153,-18.251528,,,2020-02-06,70205,Katherine,702,Northern Territory - Outback,R1
388,urn:australiapost.com.au:postcode:862_NEWCASTLEWATERS,862,NEWCASTLE WATERS,urn:iso:std:iso:3166:-2:AU-NT,NT,134.463153,-18.251528,,,2020-02-06,70205,Katherine,702,Northern Territory - Outback,R1
20115,urn:australiapost.com.au:postcode:862_NICHOLSON,862,NICHOLSON,urn:iso:std:iso:3166:-2:AU-NT,NT,137.6072968,-18.45128815,Northern Territory Country 1,Delivery Area,2020-02-06,70205,Katherine,702,Northern Territory - Outback,R1
20116,urn:australiapost.com.au:postcode:862_PAMAYU,862,PAMAYU,urn:iso:std:iso:3166:-2:AU-NT,NT,134.055559,-17.60786065,Northern Territory Country 1,Delivery Area,2020-02-06,70205,Katherine,702,Northern Territory - Outback,R1
389,urn:australiapost.com.au:postcode:862_PHILLIPCREEKSTATION,862,PHILLIP CREEK STATION,urn:iso:std:iso:3166:-2:AU-NT,NT,134.463153,-18.251528,,,2020-02-06,70205,Katherine,702,Northern Territory - Outback,R1
390,urn:australiapost.com.au:postcode:862_RENNERSPRINGS,862,RENNER SPRINGS,urn:iso:std:iso:3166:-2:AU-NT,NT,134.463153,-18.251528,,,2020-02-06,70205,Katherine,702,Northern Territory - Outback,R1
20117,urn:australiapost.com.au:postcode:862_TABLELANDS,862,TABLELANDS,urn:iso:std:iso:3166:-2:AU-NT,NT,135.5134605,-18.92862068,Northern Territory Country 1,Delivery Area,2020-02-06,70205,Katherine,702,Northern Territory - Outback,R1
391,urn:australiapost.com.au:postcode:862_TENNANTCREEK,862,TENNANT CREEK,urn:iso:std:iso:3166:-2:AU-NT,NT,134.463153,-18.251528,,,2020-02-06,70205,Katherine,702,Northern Territory - Outback,R1
392,urn:australiapost.com.au:postcode:862_THREEWAYS,862,THREE WAYS,urn:iso:std:iso:3166:-2:AU-NT,NT,134.463153,-18.251528,,,2020-02-06,70205,Katherine,702,Northern Territory - Outback,R1
393,urn:australiapost.com.au:postcode:862_WARREGO,862,WARREGO,urn:iso:std:iso:3166:-2:AU-NT,NT,134.463153,-18.251528,,,2020-02-06,70205,Katherine,702,Northern Territory - Outback,R1
394,urn:australiapost.com.au:postcode:862_WOLLOGORANGSTATION,862,WOLLOGORANG STATION,urn:iso:std:iso:3166:-2:AU-NT,NT,134.463153,-18.251528,,,2020-02-06,70205,Katherine,702,Northern Territory - Outback,R1
395,urn:australiapost.com.au:postcode:862_WYCLIFFEWELL,862,WYCLIFFE WELL,urn:iso:std:iso:3166:-2:AU-NT,NT,134.463153,-18.251528,,,2020-02-06,70205,Katherine,702,Northern Territory - Outback,R1
396,urn:australiapost.com.au:postcode:870_ALICESPRINGS,870,ALICE SPRINGS,urn:iso:std:iso:3166:-2:AU-NT,NT,133.86314,-23.702291,,,2020-02-06,70201,Alice Springs,702,Northern Territory - Outback,R1
20118,urn:australiapost.com.au:postcode:870_ARALUEN,870,ARALUEN,urn:iso:std:iso:3166:-2:AU-NT,NT,133.853957,-23.6967102,Northern Territory Country 2,Delivery Area,2020-02-06,70201,Alice Springs,702,Northern Territory - Outback,R1
20119,urn:australiapost.com.au:postcode:870_BRAITLING,870,BRAITLING,urn:iso:std:iso:3166:-2:AU-NT,NT,133.8633044,-23.67527346,Northern Territory Country 2,Delivery Area,2020-02-06,70201,Alice Springs,702,Northern Territory - Outback,R1
20120,urn:australiapost.com.au:postcode:870_CICCONE,870,CICCONE,urn:iso:std:iso:3166:-2:AU-NT,NT,133.8678028,-23.69234565,Northern Territory Country 2,Delivery Area,2020-02-06,70201,Alice Springs,702,Northern Territory - Outback,R1
20121,urn:australiapost.com.au:postcode:870_DESERTSPRINGS,870,DESERT SPRINGS,urn:iso:std:iso:3166:-2:AU-NT,NT,133.8867138,-23.71460854,Northern Territory Country 2,Delivery Area,2020-02-06,70201,Alice Springs,702,Northern Territory - Outback,R1
20122,urn:australiapost.com.au:postcode:870_EASTSIDE,870,EAST SIDE,urn:iso:std:iso:3166:-2:AU-NT,NT,133.8971833,-23.69030677,Northern Territory Country 2,Delivery Area,2020-02-06,70201,Alice Springs,702,Northern Territory - Outback,R1
20123,urn:australiapost.com.au:postcode:870_GILLEN,870,GILLEN,urn:iso:std:iso:3166:-2:AU-NT,NT,133.8660005,-23.71080361,Northern Territory Country 2,Delivery Area,2020-02-06,70201,Alice Springs,702,Northern Territory - Outback,R1
20124,urn:australiapost.com.au:postcode:870_SADADEEN,870,SADADEEN,urn:iso:std:iso:3166:-2:AU-NT,NT,133.9010002,-23.70326702,Northern Territory Country 2,Delivery Area,2020-02-06,70201,Alice Springs,702,Northern Territory - Outback,R1
20125,urn:australiapost.com.au:postcode:870_STUART,870,STUART,urn:iso:std:iso:3166:-2:AU-NT,NT,133.8823863,-23.6730301,Northern Territory Country 2,Delivery Area,2020-02-06,70201,Alice Springs,702,Northern Territory - Outback,R1
20126,urn:australiapost.com.au:postcode:870_THEGAP,870,THE GAP,urn:iso:std:iso:3166:-2:AU-NT,NT,133.8740968,-23.71393895,Northern Territory Country 2,Delivery Area,2020-02-06,70201,Alice Springs,702,Northern Territory - Outback,R1
20127,urn:australiapost.com.au:postcode:870_WHITEGUMS,870,WHITE GUMS,urn:iso:std:iso:3166:-2:AU-NT,NT,133.7578528,-23.75188561,Northern Territory Country 2,Delivery Area,2020-02-06,70201,Alice Springs,702,Northern Territory - Outback,R1
397,urn:australiapost.com.au:postcode:871_ALICESPRINGS,871,ALICE SPRINGS,urn:iso:std:iso:3166:-2:AU-NT,NT,131.298809,-21.949513,,,2020-03-25,70202,Barkly,702,Northern Territory - Outback,R1
398,urn:australiapost.com.au:postcode:872_AHERRENGE,872,AHERRENGE,urn:iso:std:iso:3166:-2:AU-NT,NT,131.298809,-21.949513,,,2020-02-06,70202,Barkly,702,Northern Territory - Outback,R1
399,urn:australiapost.com.au:postcode:872_ALICURUNG,872,ALI CURUNG,urn:iso:std:iso:3166:-2:AU-NT,NT,131.298809,-21.949513,,,2020-02-06,70202,Barkly,702,Northern Territory - Outback,R1
400,urn:australiapost.com.au:postcode:872_ALICESPRINGS,872,ALICE SPRINGS,urn:iso:std:iso:3166:-2:AU-NT,NT,131.298809,-21.949513,,,2020-02-06,70202,Barkly,702,Northern Territory - Outback,R1
401,urn:australiapost.com.au:postcode:872_AMATA,872,AMATA,urn:iso:std:iso:3166:-2:AU-NT,NT,131.298809,-21.949513,,,2020-02-06,70202,Barkly,702,Northern Territory - Outback,R1
402,urn:australiapost.com.au:postcode:872_AMOONGUNA,872,AMOONGUNA,urn:iso:std:iso:3166:-2:AU-NT,NT,131.298809,-21.949513,,,2020-02-06,70202,Barkly,702,Northern Territory - Outback,R1
20128,urn:australiapost.com.au:postcode:872_AMPILATWATJA,872,AMPILATWATJA,urn:iso:std:iso:3166:-2:AU-NT,NT,135.2469212,-21.66430243,Northern Territory Country 3,Delivery Area,2020-02-06,70202,Barkly,702,Northern Territory - Outback,R1
20129,urn:australiapost.com.au:postcode:872_ANANGUPITJANTJATJARAYANKUNYTJATJARA,872,ANANGU PITJANTJATJARA YANKUNYTJATJARA,urn:iso:std:iso:3166:-2:AU-SA,SA,131.2056973,-27.07728273,Northern Territory Country 3,Delivery Area,2020-02-06,70202,Barkly,702,Northern Territory - Outback,R1
20130,urn:australiapost.com.au:postcode:872_ANATYE,872,ANATYE,urn:iso:std:iso:3166:-2:AU-NT,NT,136.9536687,-22.99400232,Northern Territory Country 3,Delivery Area,2020-02-06,70202,Barkly,702,Northern Territory - Outback,R1
20131,urn:australiapost.com.au:postcode:872_ANMATJERE,872,ANMATJERE,urn:iso:std:iso:3166:-2:AU-NT,NT,134.0970699,-22.3989311,Northern Territory Country 3,Delivery Area,2020-02-06,70202,Barkly,702,Northern Territory - Outback,R1
403,urn:australiapost.com.au:postcode:872_ANTEWENEGERRDE,872,ANTEWENEGERRDE,urn:iso:std:iso:3166:-2:AU-NT,NT,131.298809,-21.949513,,,2020-02-06,70202,Barkly,702,Northern Territory - Outback,R1
404,urn:australiapost.com.au:postcode:872_AREYONGA,872,AREYONGA,urn:iso:std:iso:3166:-2:AU-NT,NT,131.298809,-21.949513,,,2020-02-06,70202,Barkly,702,Northern Territory - Outback,R1
20132,urn:australiapost.com.au:postcode:872_ATITJERE,872,ATITJERE,urn:iso:std:iso:3166:-2:AU-NT,NT,134.932556,-22.98205755,Northern Territory Country 3,Delivery Area,2020-02-06,70202,Barkly,702,Northern Territory - Outback,R1
20133,urn:australiapost.com.au:postcode:872_AYERSRANGESOUTH,872,AYERS RANGE SOUTH,urn:iso:std:iso:3166:-2:AU-SA,SA,133.2680322,-26.1906007,Northern Territory Country 3,Delivery Area,2020-02-06,70202,Barkly,702,Northern Territory - Outback,R1
406,urn:australiapost.com.au:postcode:872_AYERSROCK,872,AYERS ROCK,urn:iso:std:iso:3166:-2:AU-NT,NT,131.298809,-21.949513,,,2020-02-06,70202,Barkly,702,Northern Territory - Outback,R1
20134,urn:australiapost.com.au:postcode:872_BARROWCREEK,872,BARROW CREEK,urn:iso:std:iso:3166:-2:AU-NT,NT,133.975551,-21.379898,Northern Territory Country 3,Delivery Area,2020-02-06,70202,Barkly,702,Northern Territory - Outback,R1
20135,urn:australiapost.com.au:postcode:872_BURTPLAIN,872,BURT PLAIN,urn:iso:std:iso:3166:-2:AU-NT,NT,133.4488082,-23.36823008,Northern Territory Country 3,Delivery Area,2020-02-06,70202,Barkly,702,Northern Territory - Outback,R1
20136,urn:australiapost.com.au:postcode:872_CANTEENCREEK,872,CANTEEN CREEK,urn:iso:std:iso:3166:-2:AU-NT,NT,135.586508,-20.64026544,Northern Territory Country 3,Delivery Area,2020-02-06,70202,Barkly,702,Northern Territory - Outback,R1
20137,urn:australiapost.com.au:postcode:872_CHILLAWELL,872,CHILLA WELL,urn:iso:std:iso:3166:-2:AU-NT,NT,131.3745808,-21.64196866,Northern Territory Country 3,Delivery Area,2020-02-06,70202,Barkly,702,Northern Territory - Outback,R1
20138,urn:australiapost.com.au:postcode:872_COSTELLO,872,COSTELLO,urn:iso:std:iso:3166:-2:AU-NT,NT,136.7750667,-21.00078643,Northern Territory Country 3,Delivery Area,2020-02-06,70202,Barkly,702,Northern Territory - Outback,R1
20139,urn:australiapost.com.au:postcode:872_DAVENPORT,872,DAVENPORT,urn:iso:std:iso:3166:-2:AU-NT,NT,134.8291358,-20.94859492,Northern Territory Country 3,Delivery Area,2020-02-06,70202,Barkly,702,Northern Territory - Outback,R1
20140,urn:australiapost.com.au:postcode:872_DEROSEHILL,872,DE ROSE HILL,urn:iso:std:iso:3166:-2:AU-SA,SA,133.3111959,-26.5560969,Northern Territory Country 3,Delivery Area,2020-02-06,70202,Barkly,702,Northern Territory - Outback,R1
409,urn:australiapost.com.au:postcode:872_DOCKERRIVER,872,DOCKER RIVER,urn:iso:std:iso:3166:-2:AU-NT,NT,131.298809,-21.949513,,,2020-02-06,70202,Barkly,702,Northern Territory - Outback,R1
20141,urn:australiapost.com.au:postcode:872_ENGAWALA,872,ENGAWALA,urn:iso:std:iso:3166:-2:AU-NT,NT,134.4572304,-22.80352884,Northern Territory Country 3,Delivery Area,2020-02-06,70202,Barkly,702,Northern Territory - Outback,R1
410,urn:australiapost.com.au:postcode:872_ERLDUNDA,872,ERLDUNDA,urn:iso:std:iso:3166:-2:AU-NT,NT,131.298809,-21.949513,,,2020-02-06,70202,Barkly,702,Northern Territory - Outback,R1
411,urn:australiapost.com.au:postcode:872_ERNABELLA,872,ERNABELLA,urn:iso:std:iso:3166:-2:AU-SA,SA,131.298809,-21.949513,,,2020-02-06,70202,Barkly,702,Northern Territory - Outback,R1
22838,urn:australiapost.com.au:postcode:872_ERNABELLA(PUKATJA),872,ERNABELLA (PUKATJA),urn:iso:std:iso:3166:-2:AU-SA,SA,0,0,,,2020-03-25,,,,,R3
412,urn:australiapost.com.au:postcode:872_FINKE,872,FINKE,urn:iso:std:iso:3166:-2:AU-NT,NT,131.298809,-21.949513,,,2020-02-06,70202,Barkly,702,Northern Territory - Outback,R1
413,urn:australiapost.com.au:postcode:872_FREGON,872,FREGON,urn:iso:std:iso:3166:-2:AU-SA,SA,131.298809,-21.949513,,,2020-02-06,70202,Barkly,702,Northern Territory - Outback,R1
20142,urn:australiapost.com.au:postcode:872_GHAN,872,GHAN,urn:iso:std:iso:3166:-2:AU-NT,NT,133.945318,-25.50869599,Northern Territory Country 3,Delivery Area,2020-02-06,70202,Barkly,702,Northern Territory - Outback,R1
414,urn:australiapost.com.au:postcode:872_GIBSONDESERTNORTH,872,GIBSON DESERT NORTH,urn:iso:std:iso:3166:-2:AU-WA,WA,131.298809,-21.949513,,,2020-02-06,70202,Barkly,702,Northern Territory - Outback,R1
20143,urn:australiapost.com.au:postcode:872_GIBSONDESERTSOUTH,872,GIBSON DESERT SOUTH,urn:iso:std:iso:3166:-2:AU-WA,WA,125.9841842,-24.94725917,Northern Territory Country 3,Delivery Area,2020-02-06,70202,Barkly,702,Northern Territory - Outback,R1
416,urn:australiapost.com.au:postcode:872_HAASTSBLUFF,872,HAASTS BLUFF,urn:iso:std:iso:3166:-2:AU-NT,NT,131.298809,-21.949513,,,2020-02-06,70202,Barkly,702,Northern Territory - Outback,R1
20144,urn:australiapost.com.au:postcode:872_HALE,872,HALE,urn:iso:std:iso:3166:-2:AU-NT,NT,134.965227,-24.08113872,Northern Territory Country 3,Delivery Area,2020-02-06,70202,Barkly,702,Northern Territory - Outback,R1
20145,urn:australiapost.com.au:postcode:872_HART,872,HART,urn:iso:std:iso:3166:-2:AU-NT,NT,135.5988293,-23.02087465,Northern Territory Country 3,Delivery Area,2020-02-06,70202,Barkly,702,Northern Territory - Outback,R1
20146,urn:australiapost.com.au:postcode:872_HARTRANGE,872,HART RANGE,urn:iso:std:iso:3166:-2:AU-NT,NT,134.8333333,-23.1666667,Northern Territory Country 3,Delivery Area,2020-02-06,70202,Barkly,702,Northern Territory - Outback,R1
20147,urn:australiapost.com.au:postcode:872_HERMANNSBURG,872,HERMANNSBURG,urn:iso:std:iso:3166:-2:AU-NT,NT,132.7960098,-23.93802519,Northern Territory Country 3,Delivery Area,2020-02-06,70202,Barkly,702,Northern Territory - Outback,R1
20148,urn:australiapost.com.au:postcode:872_HUGH,872,HUGH,urn:iso:std:iso:3166:-2:AU-NT,NT,133.610012,-24.11229981,Northern Territory Country 3,Delivery Area,2020-02-06,70202,Barkly,702,Northern Territory - Outback,R1
418,urn:australiapost.com.au:postcode:872_IMAMPA,872,IMAMPA,urn:iso:std:iso:3166:-2:AU-NT,NT,131.298809,-21.949513,,,2020-02-06,70202,Barkly,702,Northern Territory - Outback,R1
20149,urn:australiapost.com.au:postcode:872_IMANPA,872,IMANPA,urn:iso:std:iso:3166:-2:AU-NT,NT,132.5687636,-25.1175562,Northern Territory Country 3,Delivery Area,2020-02-06,70202,Barkly,702,Northern Territory - Outback,R1
419,urn:australiapost.com.au:postcode:872_INDULKANA,872,INDULKANA,urn:iso:std:iso:3166:-2:AU-SA,SA,131.298809,-21.949513,,,2020-02-06,70202,Barkly,702,Northern Territory - Outback,R1
22844,urn:australiapost.com.au:postcode:872_INDULKANA(IWANTJA),872,INDULKANA (IWANTJA),urn:iso:std:iso:3166:-2:AU-SA,SA,0,0,,,2020-03-25,,,,,R3
20150,urn:australiapost.com.au:postcode:872_ININTISTORE,872,ININTI STORE,urn:iso:std:iso:3166:-2:AU-NT,NT,131.6138326,-23.4686864,Northern Territory Country 3,Delivery Area,2020-02-06,70202,Barkly,702,Northern Territory - Outback,R1
20151,urn:australiapost.com.au:postcode:872_IWANTJA,872,IWANTJA,urn:iso:std:iso:3166:-2:AU-SA,SA,133.3066861,-26.97805135,Northern Territory Country 3,Delivery Area,2020-02-06,70202,Barkly,702,Northern Territory - Outback,R1
420,urn:australiapost.com.au:postcode:872_JAYCREEK,872,JAY CREEK,urn:iso:std:iso:3166:-2:AU-NT,NT,131.298809,-21.949513,,,2020-02-06,70202,Barkly,702,Northern Territory - Outback,R1
20152,urn:australiapost.com.au:postcode:872_KALKA,872,KALKA,urn:iso:std:iso:3166:-2:AU-SA,SA,129.1527543,-26.11557751,Northern Territory Country 3,Delivery Area,2020-02-06,70202,Barkly,702,Northern Territory - Outback,R1
20153,urn:australiapost.com.au:postcode:872_KALTJITI,872,KALTJITI,urn:iso:std:iso:3166:-2:AU-SA,SA,132.0298903,-26.76713295,Northern Territory Country 3,Delivery Area,2020-02-06,70202,Barkly,702,Northern Territory - Outback,R1
20154,urn:australiapost.com.au:postcode:872_KALTUKATJARA,872,KALTUKATJARA,urn:iso:std:iso:3166:-2:AU-NT,NT,129.094528,-24.87255301,Northern Territory Country 3,Delivery Area,2020-02-06,70202,Barkly,702,Northern Territory - Outback,R1
20155,urn:australiapost.com.au:postcode:872_KANPI,872,KANPI,urn:iso:std:iso:3166:-2:AU-SA,SA,130.1149452,-26.16295046,Northern Territory Country 3,Delivery Area,2020-02-06,70202,Barkly,702,Northern Territory - Outback,R1
422,urn:australiapost.com.au:postcode:872_KINTORE,872,KINTORE,urn:iso:std:iso:3166:-2:AU-NT,NT,131.298809,-21.949513,,,2020-02-06,70202,Barkly,702,Northern Territory - Outback,R1
20156,urn:australiapost.com.au:postcode:872_KIWIRRKURRA,872,KIWIRRKURRA,urn:iso:std:iso:3166:-2:AU-WA,WA,126.954107,-23.2807675,Northern Territory Country 3,Delivery Area,2020-02-06,70202,Barkly,702,Northern Territory - Outback,R1
20157,urn:australiapost.com.au:postcode:872_KULGERA,872,KULGERA,urn:iso:std:iso:3166:-2:AU-NT,NT,133.5,-25.833333,Northern Territory Country 3,Delivery Area,2020-02-06,70202,Barkly,702,Northern Territory - Outback,R1
20158,urn:australiapost.com.au:postcode:872_KUNPARRKA,872,KUNPARRKA,urn:iso:std:iso:3166:-2:AU-NT,NT,131.6609525,-23.34766035,Northern Territory Country 3,Delivery Area,2020-02-06,70202,Barkly,702,Northern Territory - Outback,R1
20159,urn:australiapost.com.au:postcode:872_LAKEMACKAY,872,LAKE MACKAY,urn:iso:std:iso:3166:-2:AU-NT,NT,129.836553,-22.56770511,Northern Territory Country 3,Delivery Area,2020-02-06,70202,Barkly,702,Northern Territory - Outback,R1
20160,urn:australiapost.com.au:postcode:872_LAMBINA,872,LAMBINA,urn:iso:std:iso:3166:-2:AU-SA,SA,134.0209294,-26.98843007,Northern Territory Country 3,Delivery Area,2020-02-06,70202,Barkly,702,Northern Territory - Outback,R1
20161,urn:australiapost.com.au:postcode:872_LARAMBA,872,LARAMBA,urn:iso:std:iso:3166:-2:AU-NT,NT,132.7623588,-22.54343571,Northern Territory Country 3,Delivery Area,2020-02-06,70202,Barkly,702,Northern Territory - Outback,R1
20162,urn:australiapost.com.au:postcode:872_MEREENIE,872,MEREENIE,urn:iso:std:iso:3166:-2:AU-NT,NT,131.8260951,-23.89506921,Northern Territory Country 3,Delivery Area,2020-02-06,70202,Barkly,702,Northern Territory - Outback,R1
20163,urn:australiapost.com.au:postcode:872_MIMILI,872,MIMILI,urn:iso:std:iso:3166:-2:AU-SA,SA,132.7012923,-27.02392513,Northern Territory Country 3,Delivery Area,2020-02-06,70202,Barkly,702,Northern Territory - Outback,R1
20164,urn:australiapost.com.au:postcode:872_MOUNTLIEBIG,872,MOUNT LIEBIG,urn:iso:std:iso:3166:-2:AU-NT,NT,131.2776674,-23.26801669,Northern Territory Country 3,Delivery Area,2020-02-06,70202,Barkly,702,Northern Territory - Outback,R1
20165,urn:australiapost.com.au:postcode:872_MOUNTZEIL,872,MOUNT ZEIL,urn:iso:std:iso:3166:-2:AU-NT,NT,132.3999432,-23.30598045,Northern Territory Country 3,Delivery Area,2020-02-06,70202,Barkly,702,Northern Territory - Outback,R1
427,urn:australiapost.com.au:postcode:872_MULGABORE,872,MULGA BORE,urn:iso:std:iso:3166:-2:AU-NT,NT,131.298809,-21.949513,,,2020-02-06,70202,Barkly,702,Northern Territory - Outback,R1
20166,urn:australiapost.com.au:postcode:872_MURPUTJA,872,MURPUTJA,urn:iso:std:iso:3166:-2:AU-SA,SA,130.1826917,-26.1637425,Northern Territory Country 3,Delivery Area,2020-02-06,70202,Barkly,702,Northern Territory - Outback,R1
428,urn:australiapost.com.au:postcode:872_MURPUTJAHOMELANDS,872,MURPUTJA HOMELANDS,urn:iso:std:iso:3166:-2:AU-NT,NT,131.298809,-21.949513,,,2020-02-06,70202,Barkly,702,Northern Territory - Outback,R1
20167,urn:australiapost.com.au:postcode:872_MUTITJULU,872,MUTITJULU,urn:iso:std:iso:3166:-2:AU-NT,NT,131.0673597,-25.35069546,Northern Territory Country 3,Delivery Area,2020-02-06,70202,Barkly,702,Northern Territory - Outback,R1
20168,urn:australiapost.com.au:postcode:872_NAMATJIRA,872,NAMATJIRA,urn:iso:std:iso:3166:-2:AU-NT,NT,132.5066498,-23.92272359,Northern Territory Country 3,Delivery Area,2020-02-06,70202,Barkly,702,Northern Territory - Outback,R1
20169,urn:australiapost.com.au:postcode:872_NGAANYATJARRA-GILES,872,NGAANYATJARRA-GILES,urn:iso:std:iso:3166:-2:AU-WA,WA,128.1150802,-25.27073166,Northern Territory Country 3,Delivery Area,2020-02-06,70202,Barkly,702,Northern Territory - Outback,R1
20170,urn:australiapost.com.au:postcode:872_NYAPARI,872,NYAPARI,urn:iso:std:iso:3166:-2:AU-SA,SA,130.2070878,-26.18249261,Northern Territory Country 3,Delivery Area,2020-02-06,70202,Barkly,702,Northern Territory - Outback,R1
20171,urn:australiapost.com.au:postcode:872_NYIRRIPI,872,NYIRRIPI,urn:iso:std:iso:3166:-2:AU-NT,NT,130.5638643,-22.64924233,Northern Territory Country 3,Delivery Area,2020-02-06,70202,Barkly,702,Northern Territory - Outback,R1
20172,urn:australiapost.com.au:postcode:872_PAPUNYA,872,PAPUNYA,urn:iso:std:iso:3166:-2:AU-NT,NT,131.9131315,-23.20480045,Northern Territory Country 3,Delivery Area,2020-02-06,70202,Barkly,702,Northern Territory - Outback,R1
20173,urn:australiapost.com.au:postcode:872_PATJARR,872,PATJARR,urn:iso:std:iso:3166:-2:AU-WA,WA,131.6138326,-23.4686864,Northern Territory Country 3,Delivery Area,2020-02-06,70202,Barkly,702,Northern Territory - Outback,R1
20174,urn:australiapost.com.au:postcode:872_PETERMANN,872,PETERMANN,urn:iso:std:iso:3166:-2:AU-NT,NT,129.9128112,-25.06768646,Northern Territory Country 3,Delivery Area,2020-02-06,70202,Barkly,702,Northern Territory - Outback,R1
20175,urn:australiapost.com.au:postcode:872_PIPALYATJARA,872,PIPALYATJARA,urn:iso:std:iso:3166:-2:AU-SA,SA,129.1456993,-26.17046294,Northern Territory Country 3,Delivery Area,2020-02-06,70202,Barkly,702,Northern Territory - Outback,R1
433,urn:australiapost.com.au:postcode:872_PITJANTJATJARAHOMELANDS,872,PITJANTJATJARA HOMELANDS,urn:iso:std:iso:3166:-2:AU-NT,NT,131.298809,-21.949513,,,2020-02-06,70202,Barkly,702,Northern Territory - Outback,R1
20176,urn:australiapost.com.au:postcode:872_PUKATJA,872,PUKATJA,urn:iso:std:iso:3166:-2:AU-SA,SA,132.138154,-26.29118818,Northern Territory Country 3,Delivery Area,2020-02-06,70202,Barkly,702,Northern Territory - Outback,R1
20177,urn:australiapost.com.au:postcode:872_SANDOVER,872,SANDOVER,urn:iso:std:iso:3166:-2:AU-NT,NT,135.4818322,-21.98353618,Northern Territory Country 3,Delivery Area,2020-02-06,70202,Barkly,702,Northern Territory - Outback,R1
434,urn:australiapost.com.au:postcode:872_SANTATERESA,872,SANTA TERESA,urn:iso:std:iso:3166:-2:AU-NT,NT,131.298809,-21.949513,,,2020-02-06,70202,Barkly,702,Northern Territory - Outback,R1
20178,urn:australiapost.com.au:postcode:872_SIMPSON,872,SIMPSON,urn:iso:std:iso:3166:-2:AU-NT,NT,136.92241,-25.0115767,Northern Territory Country 3,Delivery Area,2020-02-06,70202,Barkly,702,Northern Territory - Outback,R1
20179,urn:australiapost.com.au:postcode:872_TANAMI,872,TANAMI,urn:iso:std:iso:3166:-2:AU-NT,NT,130.5073968,-20.02389415,Northern Territory Country 3,Delivery Area,2020-02-06,70202,Barkly,702,Northern Territory - Outback,R1
20180,urn:australiapost.com.au:postcode:872_TARA,872,TARA,urn:iso:std:iso:3166:-2:AU-NT,NT,133.9991919,-21.48332153,Northern Territory Country 3,Delivery Area,2020-02-06,70202,Barkly,702,Northern Territory - Outback,R1
435,urn:australiapost.com.au:postcode:872_THANGKENHARENGE,872,THANGKENHARENGE,urn:iso:std:iso:3166:-2:AU-NT,NT,131.298809,-21.949513,,,2020-02-06,70202,Barkly,702,Northern Territory - Outback,R1
436,urn:australiapost.com.au:postcode:872_TITREE,872,TI TREE,urn:iso:std:iso:3166:-2:AU-NT,NT,131.298809,-21.949513,,,2020-02-06,70202,Barkly,702,Northern Territory - Outback,R1
20181,urn:australiapost.com.au:postcode:872_TIEYON,872,TIEYON,urn:iso:std:iso:3166:-2:AU-SA,SA,133.8900188,-26.34253111,Northern Territory Country 3,Delivery Area,2020-02-06,70202,Barkly,702,Northern Territory - Outback,R1
20182,urn:australiapost.com.au:postcode:872_TITJIKALA,872,TITJIKALA,urn:iso:std:iso:3166:-2:AU-NT,NT,134.0751086,-24.68023025,Northern Territory Country 3,Delivery Area,2020-02-06,70202,Barkly,702,Northern Territory - Outback,R1
20183,urn:australiapost.com.au:postcode:872_TJIRRKARLI,872,TJIRRKARLI,urn:iso:std:iso:3166:-2:AU-WA,WA,125.3466253,-25.9752687,Northern Territory Country 3,Delivery Area,2020-02-06,70202,Barkly,702,Northern Territory - Outback,R1
20184,urn:australiapost.com.au:postcode:872_TJUKURLA,872,TJUKURLA,urn:iso:std:iso:3166:-2:AU-WA,WA,128.656027,-24.343546,Northern Territory Country 3,Delivery Area,2020-02-06,70202,Barkly,702,Northern Territory - Outback,R1
439,urn:australiapost.com.au:postcode:872_ULURU,872,ULURU,urn:iso:std:iso:3166:-2:AU-NT,NT,131.298809,-21.949513,,,2020-02-06,70202,Barkly,702,Northern Territory - Outback,R1
440,urn:australiapost.com.au:postcode:872_UMPANGARA,872,UMPANGARA,urn:iso:std:iso:3166:-2:AU-NT,NT,131.298809,-21.949513,,,2020-02-06,70202,Barkly,702,Northern Territory - Outback,R1
20185,urn:australiapost.com.au:postcode:872_UMUWA,872,UMUWA,urn:iso:std:iso:3166:-2:AU-SA,SA,132.0252848,-26.47801156,Northern Territory Country 3,Delivery Area,2020-02-06,70202,Barkly,702,Northern Territory - Outback,R1
441,urn:australiapost.com.au:postcode:872_URAPUNTJA,872,URAPUNTJA,urn:iso:std:iso:3166:-2:AU-NT,NT,131.298809,-21.949513,,,2020-02-06,70202,Barkly,702,Northern Territory - Outback,R1
20186,urn:australiapost.com.au:postcode:872_WALLACEROCKHOLE,872,WALLACE ROCKHOLE,urn:iso:std:iso:3166:-2:AU-NT,NT,133.0920217,-24.12316757,Northern Territory Country 3,Delivery Area,2020-02-06,70202,Barkly,702,Northern Territory - Outback,R1
443,urn:australiapost.com.au:postcode:872_WANARN,872,WANARN,urn:iso:std:iso:3166:-2:AU-NT,NT,131.298809,-21.949513,,,2020-02-06,70202,Barkly,702,Northern Territory - Outback,R1
444,urn:australiapost.com.au:postcode:872_WARAKURNA,872,WARAKURNA,urn:iso:std:iso:3166:-2:AU-WA,WA,131.298809,-21.949513,,,2020-02-06,70202,Barkly,702,Northern Territory - Outback,R1
20187,urn:australiapost.com.au:postcode:872_WATARRU,872,WATARRU,urn:iso:std:iso:3166:-2:AU-SA,SA,129.9052488,-27.02469871,Northern Territory Country 3,Delivery Area,2020-02-06,70202,Barkly,702,Northern Territory - Outback,R1
20188,urn:australiapost.com.au:postcode:872_WATINUMA,872,WATINUMA,urn:iso:std:iso:3166:-2:AU-SA,SA,131.8810186,-26.52118731,Northern Territory Country 3,Delivery Area,2020-02-06,70202,Barkly,702,Northern Territory - Outback,R1
445,urn:australiapost.com.au:postcode:872_WILLOWRA,872,WILLOWRA,urn:iso:std:iso:3166:-2:AU-NT,NT,131.298809,-21.949513,,,2020-02-06,70202,Barkly,702,Northern Territory - Outback,R1
20189,urn:australiapost.com.au:postcode:872_WILORA,872,WILORA,urn:iso:std:iso:3166:-2:AU-NT,NT,133.7264862,-21.74429359,Northern Territory Country 3,Delivery Area,2020-02-06,70202,Barkly,702,Northern Territory - Outback,R1
20190,urn:australiapost.com.au:postcode:872_WINGELLINA,872,WINGELLINA,urn:iso:std:iso:3166:-2:AU-WA,WA,131.6138326,-23.4686864,Northern Territory Country 3,Delivery Area,2020-02-06,70202,Barkly,702,Northern Territory - Outback,R1
20191,urn:australiapost.com.au:postcode:872_WUTUNUGURRA,872,WUTUNUGURRA,urn:iso:std:iso:3166:-2:AU-NT,NT,135.2504879,-20.46229972,Northern Territory Country 3,Delivery Area,2020-02-06,70202,Barkly,702,Northern Territory - Outback,R1
448,urn:australiapost.com.au:postcode:872_YUELAMU,872,YUELAMU,urn:iso:std:iso:3166:-2:AU-NT,NT,131.298809,-21.949513,,,2020-02-06,70202,Barkly,702,Northern Territory - Outback,R1
449,urn:australiapost.com.au:postcode:872_YUENDUMU,872,YUENDUMU,urn:iso:std:iso:3166:-2:AU-NT,NT,131.298809,-21.949513,,,2020-02-06,70202,Barkly,702,Northern Territory - Outback,R1
450,urn:australiapost.com.au:postcode:872_YULARA,872,YULARA,urn:iso:std:iso:3166:-2:AU-NT,NT,131.298809,-21.949513,,,2020-02-06,70202,Barkly,702,Northern Territory - Outback,R1
20192,urn:australiapost.com.au:postcode:872_YUNYARINYI,872,YUNYARINYI,urn:iso:std:iso:3166:-2:AU-SA,SA,132.4550072,-26.32328109,Northern Territory Country 3,Delivery Area,2020-02-06,70202,Barkly,702,Northern Territory - Outback,R1
20193,urn:australiapost.com.au:postcode:873_AMOONGUNA,873,AMOONGUNA,urn:iso:std:iso:3166:-2:AU-NT,NT,133.9306532,-23.76846799,,Delivery Area,2020-03-25,70202,Barkly,702,Northern Territory - Outback,R1
20194,urn:australiapost.com.au:postcode:873_ARUMBERA,873,ARUMBERA,urn:iso:std:iso:3166:-2:AU-NT,NT,133.8139564,-23.7852622,,Delivery Area,2019-08-26,,,,,R1
20195,urn:australiapost.com.au:postcode:873_CONNELLAN,873,CONNELLAN,urn:iso:std:iso:3166:-2:AU-NT,NT,133.9102463,-23.80211632,,Delivery Area,2019-08-26,,,,,R1
20196,urn:australiapost.com.au:postcode:873_ILPARPA,873,ILPARPA,urn:iso:std:iso:3166:-2:AU-NT,NT,133.8226187,-23.74240746,,Delivery Area,2019-08-26,,,,,R1
20197,urn:australiapost.com.au:postcode:873_KILGARIFF,873,KILGARIFF,urn:iso:std:iso:3166:-2:AU-NT,NT,133.8848603,-23.77047239,,Delivery Area,2019-08-26,,,,,R1
20198,urn:australiapost.com.au:postcode:873_ROSS,873,ROSS,urn:iso:std:iso:3166:-2:AU-NT,NT,133.9050112,-23.74471408,,Delivery Area,2019-08-26,,,,,R1
20199,urn:australiapost.com.au:postcode:874_IRLPME,874,IRLPME,urn:iso:std:iso:3166:-2:AU-NT,NT,133.8647591,-23.64690294,,Delivery Area,2019-08-26,,,,,R1
20200,urn:australiapost.com.au:postcode:874_MOUNTJOHNS,874,MOUNT JOHNS,urn:iso:std:iso:3166:-2:AU-NT,NT,133.9123902,-23.72335988,,Delivery Area,2019-08-26,,,,,R1
20201,urn:australiapost.com.au:postcode:874_UNDOOLYA,874,UNDOOLYA,urn:iso:std:iso:3166:-2:AU-NT,NT,133.9224797,-23.68480339,,Delivery Area,2019-08-26,,,,,R1
20202,urn:australiapost.com.au:postcode:875_FLYNN,875,FLYNN,urn:iso:std:iso:3166:-2:AU-NT,NT,133.8354205,-23.71350386,,Delivery Area,2019-08-26,,,,,R1
20203,urn:australiapost.com.au:postcode:875_LARAPINTA,875,LARAPINTA,urn:iso:std:iso:3166:-2:AU-NT,NT,133.8311794,-23.68028355,,Delivery Area,2019-08-26,,,,,R1
20204,urn:australiapost.com.au:postcode:880_GAPUWIYAK,880,GAPUWIYAK,urn:iso:std:iso:3166:-2:AU-NT,NT,135.7954286,-12.50557433,Northern Territory Country 4,Delivery Area,2020-02-06,70204,East Arnhem,702,Northern Territory - Outback,R1
452,urn:australiapost.com.au:postcode:880_GOVE,880,GOVE,urn:iso:std:iso:3166:-2:AU-NT,NT,136.824863,-11.670366,,,2020-02-06,70204,East Arnhem,702,Northern Territory - Outback,R1
20205,urn:australiapost.com.au:postcode:880_GUNYANGARA,880,GUNYANGARA,urn:iso:std:iso:3166:-2:AU-NT,NT,136.7083085,-12.21424182,Northern Territory Country 4,Delivery Area,2020-02-06,70204,East Arnhem,702,Northern Territory - Outback,R1
453,urn:australiapost.com.au:postcode:880_NHULUNBUY,880,NHULUNBUY,urn:iso:std:iso:3166:-2:AU-NT,NT,136.824863,-11.670366,,,2020-02-06,70204,East Arnhem,702,Northern Territory - Outback,R1
20206,urn:australiapost.com.au:postcode:880_YIRRKALA,880,YIRRKALA,urn:iso:std:iso:3166:-2:AU-NT,NT,136.8772098,-12.2425718,Northern Territory Country 4,Delivery Area,2020-02-06,70204,East Arnhem,702,Northern Territory - Outback,R1
455,urn:australiapost.com.au:postcode:881_NHULUNBUY,881,NHULUNBUY,urn:iso:std:iso:3166:-2:AU-NT,NT,136.824863,-11.670366,,,2020-03-25,70204,East Arnhem,702,Northern Territory - Outback,R1
20207,urn:australiapost.com.au:postcode:885_ALYANGULA,885,ALYANGULA,urn:iso:std:iso:3166:-2:AU-NT,NT,136.420066,-13.85078586,Northern Territory Country 4,Delivery Area,2020-02-06,70204,East Arnhem,702,Northern Territory - Outback,R1
457,urn:australiapost.com.au:postcode:886_JABIRU,886,JABIRU,urn:iso:std:iso:3166:-2:AU-NT,NT,132.563373,-13.13118,,,2020-02-06,70203,Daly - Tiwi - West Arnhem,702,Northern Territory - Outback,R1
1,urn:australiapost.com.au:postcode:906_WINNELLIE,906,WINNELLIE,urn:iso:std:iso:3166:-2:AU-NT,NT,136.947051,-13.643283,,,2020-03-25,70205,Katherine,702,Northern Territory - Outback,R1
2,urn:australiapost.com.au:postcode:907_WINNELLIE,907,WINNELLIE,urn:iso:std:iso:3166:-2:AU-NT,NT,136.947051,-13.643283,,,2020-03-25,70205,Katherine,702,Northern Territory - Outback,R1
3,urn:australiapost.com.au:postcode:909_CHARLESDARWINUNIVERSITY,909,CHARLES DARWIN UNIVERSITY,urn:iso:std:iso:3166:-2:AU-NT,NT,0,0,,,2020-02-06,70102,Darwin Suburbs,701,Darwin,R1
458,urn:australiapost.com.au:postcode:1001_SYDNEY,1001,SYDNEY,urn:iso:std:iso:3166:-2:AU-NSW,NSW,151.268071,-33.794883,EAST SUBS MC,LVR,2020-03-25,11703,Sydney Inner City,117,Sydney - City and Inner South,R1
459,urn:australiapost.com.au:postcode:1002_SYDNEY,1002,SYDNEY,urn:iso:std:iso:3166:-2:AU-NSW,NSW,151.268071,-33.794883,EAST SUBS MC,LVR,2020-03-25,11703,Sydney Inner City,117,Sydney - City and Inner South,R1
460,urn:australiapost.com.au:postcode:1003_SYDNEY,1003,SYDNEY,urn:iso:std:iso:3166:-2:AU-NSW,NSW,151.268071,-33.794883,EAST SUBS MC,LVR,2020-03-25,11703,Sydney Inner City,117,Sydney - City and Inner South,R1
461,urn:australiapost.com.au:postcode:1004_SYDNEY,1004,SYDNEY,urn:iso:std:iso:3166:-2:AU-NSW,NSW,151.268071,-33.794883,EAST SUBS MC,LVR,2020-03-25,11703,Sydney Inner City,117,Sydney - City and Inner South,R1
462,urn:australiapost.com.au:postcode:1005_SYDNEY,1005,SYDNEY,urn:iso:std:iso:3166:-2:AU-NSW,NSW,151.268071,-33.794883,GPO BOX CENTRE,LVR,2020-03-25,11703,Sydney Inner City,117,Sydney - City and Inner South,R1
463,urn:australiapost.com.au:postcode:1006_SYDNEY,1006,SYDNEY,urn:iso:std:iso:3166:-2:AU-NSW,NSW,151.268071,-33.794883,GPO BOX CENTRE,LVR,2020-03-25,11703,Sydney Inner City,117,Sydney - City and Inner South,R1
464,urn:australiapost.com.au:postcode:1007_SYDNEY,1007,SYDNEY,urn:iso:std:iso:3166:-2:AU-NSW,NSW,151.268071,-33.794883,GPO BOX CENTRE,LVR,2020-03-25,11703,Sydney Inner City,117,Sydney - City and Inner South,R1
465,urn:australiapost.com.au:postcode:1008_SYDNEY,1008,SYDNEY,urn:iso:std:iso:3166:-2:AU-NSW,NSW,151.268071,-33.794883,GPO BOX CENTRE,LVR,2020-03-25,11703,Sydney Inner City,117,Sydney - City and Inner South,R1
466,urn:australiapost.com.au:postcode:1009_SYDNEY,1009,SYDNEY,urn:iso:std:iso:3166:-2:AU-NSW,NSW,151.268071,-33.794883,EAST SUBS MC,LVR,2020-03-25,11703,Sydney Inner City,117,Sydney - City and Inner South,R1
467,urn:australiapost.com.au:postcode:1010_SYDNEY,1010,SYDNEY,urn:iso:std:iso:3166:-2:AU-NSW,NSW,151.268071,-33.794883,EAST SUBS MC,LVR,2020-03-25,11703,Sydney Inner City,117,Sydney - City and Inner South,R1
468,urn:australiapost.com.au:postcode:1020_SYDNEY,1020,SYDNEY,urn:iso:std:iso:3166:-2:AU-NSW,NSW,151.268071,-33.794883,NULL,LVR,2020-03-25,11703,Sydney Inner City,117,Sydney - City and Inner South,R1
469,urn:australiapost.com.au:postcode:1021_SYDNEY,1021,SYDNEY,urn:iso:std:iso:3166:-2:AU-NSW,NSW,151.268071,-33.794883,NULL,LVR,2020-03-25,11703,Sydney Inner City,117,Sydney - City and Inner South,R1
470,urn:australiapost.com.au:postcode:1022_SYDNEY,1022,SYDNEY,urn:iso:std:iso:3166:-2:AU-NSW,NSW,151.268071,-33.794883,SYDNEY GPO,LVR,2020-03-25,11703,Sydney Inner City,117,Sydney - City and Inner South,R1
471,urn:australiapost.com.au:postcode:1023_SYDNEY,1023,SYDNEY,urn:iso:std:iso:3166:-2:AU-NSW,NSW,151.268071,-33.794883,NULL,LVR,2020-03-25,11703,Sydney Inner City,117,Sydney - City and Inner South,R1
472,urn:australiapost.com.au:postcode:1025_SYDNEY,1025,SYDNEY,urn:iso:std:iso:3166:-2:AU-NSW,NSW,151.268071,-33.794883,NULL,LVR,2020-03-25,11703,Sydney Inner City,117,Sydney - City and Inner South,R1
473,urn:australiapost.com.au:postcode:1026_SYDNEY,1026,SYDNEY,urn:iso:std:iso:3166:-2:AU-NSW,NSW,151.268071,-33.794883,NULL,LVR,2020-03-25,11703,Sydney Inner City,117,Sydney - City and Inner South,R1
474,urn:australiapost.com.au:postcode:1027_SYDNEY,1027,SYDNEY,urn:iso:std:iso:3166:-2:AU-NSW,NSW,151.268071,-33.794883,NULL,LVR,2020-03-25,11703,Sydney Inner City,117,Sydney - City and Inner South,R1
475,urn:australiapost.com.au:postcode:1028_SYDNEY,1028,SYDNEY,urn:iso:std:iso:3166:-2:AU-NSW,NSW,151.268071,-33.794883,GPO BOX CENTRE,LVR,2020-03-25,11703,Sydney Inner City,117,Sydney - City and Inner South,R1
476,urn:australiapost.com.au:postcode:1029_SYDNEY,1029,SYDNEY,urn:iso:std:iso:3166:-2:AU-NSW,NSW,151.268071,-33.794883,NULL,LVR,2020-03-25,11703,Sydney Inner City,117,Sydney - City and Inner South,R1
477,urn:australiapost.com.au:postcode:1030_SYDNEY,1030,SYDNEY,urn:iso:std:iso:3166:-2:AU-NSW,NSW,151.268071,-33.794883,NULL,LVR,2020-03-25,11703,Sydney Inner City,117,Sydney - City and Inner South,R1
478,urn:australiapost.com.au:postcode:1031_SYDNEY,1031,SYDNEY,urn:iso:std:iso:3166:-2:AU-NSW,NSW,151.268071,-33.794883,NULL,LVR,2020-03-25,11703,Sydney Inner City,117,Sydney - City and Inner South,R1
479,urn:australiapost.com.au:postcode:1032_SYDNEY,1032,SYDNEY,urn:iso:std:iso:3166:-2:AU-NSW,NSW,150.874182,-33.662834,NULL,LVR,2020-03-25,11703,Sydney Inner City,117,Sydney - City and Inner South,R1
480,urn:australiapost.com.au:postcode:1033_SYDNEY,1033,SYDNEY,urn:iso:std:iso:3166:-2:AU-NSW,NSW,151.268071,-33.794883,NULL,LVR,2020-03-25,11703,Sydney Inner City,117,Sydney - City and Inner South,R1
481,urn:australiapost.com.au:postcode:1034_SYDNEY,1034,SYDNEY,urn:iso:std:iso:3166:-2:AU-NSW,NSW,151.268071,-33.794883,NULL,LVR,2020-03-25,11703,Sydney Inner City,117,Sydney - City and Inner South,R1
482,urn:australiapost.com.au:postcode:1035_SYDNEY,1035,SYDNEY,urn:iso:std:iso:3166:-2:AU-NSW,NSW,151.268071,-33.794883,NULL,LVR,2020-03-25,11703,Sydney Inner City,117,Sydney - City and Inner South,R1
483,urn:australiapost.com.au:postcode:1036_SYDNEY,1036,SYDNEY,urn:iso:std:iso:3166:-2:AU-NSW,NSW,151.268071,-33.794883,NULL,LVR,2020-03-25,11703,Sydney Inner City,117,Sydney - City and Inner South,R1
484,urn:australiapost.com.au:postcode:1037_SYDNEY,1037,SYDNEY,urn:iso:std:iso:3166:-2:AU-NSW,NSW,151.268071,-33.794883,NULL,LVR,2020-03-25,11703,Sydney Inner City,117,Sydney - City and Inner South,R1
485,urn:australiapost.com.au:postcode:1038_SYDNEY,1038,SYDNEY,urn:iso:std:iso:3166:-2:AU-NSW,NSW,151.268071,-33.794883,NULL,LVR,2020-03-25,11703,Sydney Inner City,117,Sydney - City and Inner South,R1
486,urn:australiapost.com.au:postcode:1039_SYDNEY,1039,SYDNEY,urn:iso:std:iso:3166:-2:AU-NSW,NSW,151.268071,-33.794883,GPO BOX CENTRE,LVR,2020-03-25,11703,Sydney Inner City,117,Sydney - City and Inner South,R1
487,urn:australiapost.com.au:postcode:1040_SYDNEY,1040,SYDNEY,urn:iso:std:iso:3166:-2:AU-NSW,NSW,151.268071,-33.794883,NULL,LVR,2020-03-25,11703,Sydney Inner City,117,Sydney - City and Inner South,R1
488,urn:australiapost.com.au:postcode:1041_SYDNEY,1041,SYDNEY,urn:iso:std:iso:3166:-2:AU-NSW,NSW,151.268071,-33.794883,NULL,LVR,2020-03-25,11703,Sydney Inner City,117,Sydney - City and Inner South,R1
489,urn:australiapost.com.au:postcode:1042_SYDNEY,1042,SYDNEY,urn:iso:std:iso:3166:-2:AU-NSW,NSW,151.268071,-33.794883,NULL,LVR,2020-03-25,11703,Sydney Inner City,117,Sydney - City and Inner South,R1
490,urn:australiapost.com.au:postcode:1043_SYDNEY,1043,SYDNEY,urn:iso:std:iso:3166:-2:AU-NSW,NSW,151.268071,-33.794883,NULL,LVR,2020-03-25,11703,Sydney Inner City,117,Sydney - City and Inner South,R1
491,urn:australiapost.com.au:postcode:1044_SYDNEY,1044,SYDNEY,urn:iso:std:iso:3166:-2:AU-NSW,NSW,151.268071,-33.794883,NULL,LVR,2020-03-25,11703,Sydney Inner City,117,Sydney - City and Inner South,R1
492,urn:australiapost.com.au:postcode:1045_SYDNEY,1045,SYDNEY,urn:iso:std:iso:3166:-2:AU-NSW,NSW,151.268071,-33.794883,NULL,LVR,2020-03-25,11703,Sydney Inner City,117,Sydney - City and Inner South,R1
493,urn:australiapost.com.au:postcode:1046_SYDNEY,1046,SYDNEY,urn:iso:std:iso:3166:-2:AU-NSW,NSW,151.268071,-33.794883,NULL,LVR,2020-03-25,11703,Sydney Inner City,117,Sydney - City and Inner South,R1
494,urn:australiapost.com.au:postcode:1100_SYDNEY,1100,SYDNEY,urn:iso:std:iso:3166:-2:AU-NSW,NSW,151.268071,-33.794883,EAST SUBS MC,LVR,2020-03-25,11703,Sydney Inner City,117,Sydney - City and Inner South,R1
495,urn:australiapost.com.au:postcode:1101_SYDNEY,1101,SYDNEY,urn:iso:std:iso:3166:-2:AU-NSW,NSW,151.268071,-33.794883,EAST SUBS MC,LVR,2020-03-25,11703,Sydney Inner City,117,Sydney - City and Inner South,R1
496,urn:australiapost.com.au:postcode:1105_SYDNEY,1105,SYDNEY,urn:iso:std:iso:3166:-2:AU-NSW,NSW,151.268071,-33.794883,GPO BOX CENTRE,LVR,2020-03-25,11703,Sydney Inner City,117,Sydney - City and Inner South,R1
497,urn:australiapost.com.au:postcode:1106_SYDNEY,1106,SYDNEY,urn:iso:std:iso:3166:-2:AU-NSW,NSW,151.268071,-33.794883,EAST SUBS MC,LVR,2020-03-25,11703,Sydney Inner City,117,Sydney - City and Inner South,R1
498,urn:australiapost.com.au:postcode:1107_SYDNEY,1107,SYDNEY,urn:iso:std:iso:3166:-2:AU-NSW,NSW,151.268071,-33.794883,EAST SUBS MC,LVR,2020-03-25,11703,Sydney Inner City,117,Sydney - City and Inner South,R1
499,urn:australiapost.com.au:postcode:1108_SYDNEY,1108,SYDNEY,urn:iso:std:iso:3166:-2:AU-NSW,NSW,151.268071,-33.794883,EAST SUBS MC,LVR,2020-03-25,11703,Sydney Inner City,117,Sydney - City and Inner South,R1
500,urn:australiapost.com.au:postcode:1109_SYDNEY,1109,SYDNEY,urn:iso:std:iso:3166:-2:AU-NSW,NSW,151.268071,-33.794883,EAST SUBS MC,LVR,2020-03-25,11703,Sydney Inner City,117,Sydney - City and Inner South,R1
501,urn:australiapost.com.au:postcode:1110_SYDNEY,1110,SYDNEY,urn:iso:std:iso:3166:-2:AU-NSW,NSW,151.268071,-33.794883,EAST SUBS MC,LVR,2020-03-25,11703,Sydney Inner City,117,Sydney - City and Inner South,R1
502,urn:australiapost.com.au:postcode:1112_SYDNEY,1112,SYDNEY,urn:iso:std:iso:3166:-2:AU-NSW,NSW,151.268071,-33.794883,NULL,LVR,2020-03-25,11703,Sydney Inner City,117,Sydney - City and Inner South,R1
503,urn:australiapost.com.au:postcode:1113_SYDNEY,1113,SYDNEY,urn:iso:std:iso:3166:-2:AU-NSW,NSW,151.268071,-33.794883,NULL,LVR,2020-03-25,11703,Sydney Inner City,117,Sydney - City and Inner South,R1
504,urn:australiapost.com.au:postcode:1114_SYDNEY,1114,SYDNEY,urn:iso:std:iso:3166:-2:AU-NSW,NSW,151.268071,-33.794883,NULL,LVR,2020-03-25,11703,Sydney Inner City,117,Sydney - City and Inner South,R1
505,urn:australiapost.com.au:postcode:1115_SYDNEY,1115,SYDNEY,urn:iso:std:iso:3166:-2:AU-NSW,NSW,151.268071,-33.794883,EAST SUBS MC,LVR,2020-03-25,11703,Sydney Inner City,117,Sydney - City and Inner South,R1
506,urn:australiapost.com.au:postcode:1116_SYDNEY,1116,SYDNEY,urn:iso:std:iso:3166:-2:AU-NSW,NSW,150.866145,-33.666729,NULL,LVR,2020-03-25,11703,Sydney Inner City,117,Sydney - City and Inner South,R1
507,urn:australiapost.com.au:postcode:1117_SYDNEY,1117,SYDNEY,urn:iso:std:iso:3166:-2:AU-NSW,NSW,150.87022,-33.664575,CITY PBC OPERATIONS,LVR,2020-03-25,11703,Sydney Inner City,117,Sydney - City and Inner South,R1
508,urn:australiapost.com.au:postcode:1118_SYDNEY,1118,SYDNEY,urn:iso:std:iso:3166:-2:AU-NSW,NSW,151.268071,-33.794883,EAST SUBS MC,LVR,2020-03-25,11703,Sydney Inner City,117,Sydney - City and Inner South,R1
509,urn:australiapost.com.au:postcode:1119_SYDNEY,1119,SYDNEY,urn:iso:std:iso:3166:-2:AU-NSW,NSW,151.268071,-33.794883,EAST SUBS MC,LVR,2020-03-25,11703,Sydney Inner City,117,Sydney - City and Inner South,R1
510,urn:australiapost.com.au:postcode:1120_SYDNEY,1120,SYDNEY,urn:iso:std:iso:3166:-2:AU-NSW,NSW,151.268071,-33.794883,EAST SUBS MC,LVR,2020-03-25,11703,Sydney Inner City,117,Sydney - City and Inner South,R1
511,urn:australiapost.com.au:postcode:1121_SYDNEY,1121,SYDNEY,urn:iso:std:iso:3166:-2:AU-NSW,NSW,151.268071,-33.794883,EAST SUBS MC,LVR,2020-03-25,11703,Sydney Inner City,117,Sydney - City and Inner South,R1
512,urn:australiapost.com.au:postcode:1122_SYDNEY,1122,SYDNEY,urn:iso:std:iso:3166:-2:AU-NSW,NSW,151.268071,-33.794883,EAST SUBS MC,LVR,2020-03-25,11703,Sydney Inner City,117,Sydney - City and Inner South,R1
513,urn:australiapost.com.au:postcode:1123_SYDNEY,1123,SYDNEY,urn:iso:std:iso:3166:-2:AU-NSW,NSW,151.268071,-33.794883,EAST SUBS MC,LVR,2020-03-25,11703,Sydney Inner City,117,Sydney - City and Inner South,R1
514,urn:australiapost.com.au:postcode:1124_SYDNEY,1124,SYDNEY,urn:iso:std:iso:3166:-2:AU-NSW,NSW,151.268071,-33.794883,EAST SUBS MC,LVR,2020-03-25,11703,Sydney Inner City,117,Sydney - City and Inner South,R1
515,urn:australiapost.com.au:postcode:1125_SYDNEY,1125,SYDNEY,urn:iso:std:iso:3166:-2:AU-NSW,NSW,151.268071,-33.794883,NULL,LVR,2020-03-25,11703,Sydney Inner City,117,Sydney - City and Inner South,R1
516,urn:australiapost.com.au:postcode:1126_SYDNEY,1126,SYDNEY,urn:iso:std:iso:3166:-2:AU-NSW,NSW,151.268071,-33.794883,EAST SUBS MC,LVR,2020-03-25,11703,Sydney Inner City,117,Sydney - City and Inner South,R1
517,urn:australiapost.com.au:postcode:1127_SYDNEY,1127,SYDNEY,urn:iso:std:iso:3166:-2:AU-NSW,NSW,151.268071,-33.794883,EAST SUBS MC,LVR,2020-03-25,11703,Sydney Inner City,117,Sydney - City and Inner South,R1
518,urn:australiapost.com.au:postcode:1128_SYDNEY,1128,SYDNEY,urn:iso:std:iso:3166:-2:AU-NSW,NSW,151.268071,-33.794883,CITY PBC OPERATIONS,LVR,2020-03-25,11703,Sydney Inner City,117,Sydney - City and Inner South,R1
519,urn:australiapost.com.au:postcode:1129_SYDNEY,1129,SYDNEY,urn:iso:std:iso:3166:-2:AU-NSW,NSW,151.268071,-33.794883,NULL,LVR,2020-03-25,11703,Sydney Inner City,117,Sydney - City and Inner South,R1
520,urn:australiapost.com.au:postcode:1130_SYDNEY,1130,SYDNEY,urn:iso:std:iso:3166:-2:AU-NSW,NSW,151.268071,-33.794883,EAST SUBS MC,LVR,2020-03-25,11703,Sydney Inner City,117,Sydney - City and Inner South,R1
521,urn:australiapost.com.au:postcode:1131_SYDNEY,1131,SYDNEY,urn:iso:std:iso:3166:-2:AU-NSW,NSW,151.268071,-33.794883,EAST SUBS MC,LVR,2020-03-25,11703,Sydney Inner City,117,Sydney - City and Inner South,R1
522,urn:australiapost.com.au:postcode:1132_SYDNEY,1132,SYDNEY,urn:iso:std:iso:3166:-2:AU-NSW,NSW,150.874265,-33.66279,EAST SUBS MC,LVR,2020-03-25,11703,Sydney Inner City,117,Sydney - City and Inner South,R1
